	date	state	school	type_school	death	suicide	number_victims	reliability	category	address	lat	lon
0	1970-01-05	DC	Hine Junior High School	K-12	1	0.0	1	3.0	Accidental	Hine Junior High School, Washington, DC, United States	38.8923472	-76.97896759999999
1	1970-01-05	DC	Sousa Junior High	K-12	0	0.0	0	3.0	Accidental	Sousa Junior High, Washington, DC, United States	38.8839745	-76.9531487
2	1970-01-05	DC	Unnamed High School	K-12	0	0.0	0	2.0	Robbery	Unnamed High School, Washington, DC, United States	38.9672873	-77.0193303
3	1970-02-06	OH	John F. Kennedy High School	K-12	0	0.0	0	2.0	Escalation of Dispute	John F. Kennedy High School, Cleveland, OH, United States	41.4494718	-81.5607
4	1970-03-23	CA	David Starr Jordan High School	K-12	0	0.0	0	2.0	Unknown	David Starr Jordan High School, Long Beach, CA, United States	33.8722207	-118.1840179
5	1970-04-15	AR	Pine Bluff Coleman High School	K-12	1	0.0	1	3.0	Gang-related	Pine Bluff Coleman High School, Pine Bluff, AR, United States	34.2161319	-92.05407439999999
6	1970-04-22	DE	Pierre S. du Pont High School	K-12	1	0.0	1	3.0	Escalation of Dispute	Pierre S. du Pont High School, Wilmington, DE, United States	39.76428	-75.53298
7	1970-05-08	FL	Carver High School	K-12	0	0.0	0	2.0	Escalation of Dispute	Carver High School, Delray Beach, FL, United States	26.4605387	-80.1128433
8	1970-05-15	UT	Ben Lomond High School	K-12	0	0.0	0	2.0	Mental Health	Ben Lomond High School, Ogden, UT, United States	41.2493595	-111.9511011
9	1970-08-28	TX	Riverside High School	K-12	0	0.0	0	2.0	Escalation of Dispute	Riverside High School, El Paso, TX, United States	31.7337929	-106.3723188
10	1970-08-31	FL	Allapatah Elementary School	K-12	1	0.0	1	2.0	Racial	Allapatah Elementary School, Miami, FL, United States	25.8051806	-80.2267373
11	1970-09-14	TN	Hamilton High School	K-12	1	0.0	1	2.0	Escalation of Dispute	Hamilton High School, Nashville, TN, United States	36.1339392	-86.76598419999999
12	1970-09-28	IA	Central High School	K-12	0	0.0	0	2.0	Domestic w/ Targeted Victim	Central High School, Davenport, IA, United States	41.5312612	-90.57645269999999
13	1970-10-05	MI	Pontiac Central High School	K-12	0	0.0	0	2.0	Racial	Pontiac Central High School, Detroit, MI, United States	42.6389216	-83.29104679999999
14	1970-10-19	TN	Booker T. Washington High School	K-12	1	0.0	1	2.0	Escalation of Dispute	Booker T. Washington High School, Nashville, TN, United States	36.1887559	-95.9708218
15	1970-10-20	TN	Washington Junior High School	K-12	0	0.0	0	2.0	Unknown	Washington Junior High School, Nashville, TN, United States	36.1631124	-86.8124993
16	1970-10-27	OH	Appleseed Junior High School	K-12	0	0.0	0	2.0	Escalation of Dispute	Appleseed Junior High School, Mansfield, OH, United States	40.7626493	-82.5429017
17	1970-11-20	IL	Harlan High School	K-12	0	0.0	0	2.0	Gang-related	Harlan High School, Chicago, IL, United States	41.7182472	-87.62071139999999
18	1970-12-12	WI	Xavier High School	K-12	1		1	3.0	Officer Involved Shooting	Xavier High School, Appleton, WI, United States	44.2487795	-88.4333529
19	1971-02-02	PA	Morris E. Leeds Middle School	K-12	1	0.0	1	3.0	Anger Over Grade/Suspension/Discipline	Morris E. Leeds Middle School, Philadelphia, PA, United States	40.0714999	-75.1743432
20	1971-02-05	PA	John F. Kennedy High School	K-12	0	0.0	0	2.0	Unknown	John F. Kennedy High School, Willingboro, PA, United States	40.0312226	-74.8821102
21	1971-02-10	TX	Oak Cliff High School	K-12	0	0.0	0	3.0	Escalation of Dispute	Oak Cliff High School, Dallas, TX, United States	32.6996702	-96.8157572
22	1971-02-25	OH	Franklin D. Roosevelt Junior High School	K-12	1	0.0	1	3.0	Unknown	Franklin D. Roosevelt Junior High School, Cleveland, OH, United States	41.5352632	-81.6104739
23	1971-03-09	AZ	Roskruge Junior High School	K-12	0	0.0	0	3.0	Accidental	Roskruge Junior High School, Tucson, AZ, United States	32.228453	-110.963284
24	1971-04-05	PA	William Penn High School	K-12	0	0.0	0	2.0	Domestic w/ Targeted Victim	William Penn High School, Harrisburg, PA, United States	40.2931721	-76.89852239999999
25	1971-05-27	MI	Benton Harbor High School	K-12	0	0.0	0	2.0	Bullying	Benton Harbor High School, Saint Joseph, MI, United States	42.1024415	-86.457231
26	1971-06-02	NY	East Aurora Middle School	K-12	1	1.0	1	3.0	Accidental	East Aurora Middle School, East Aurora, NY, United States	42.7686922	-78.618675
27	1971-08-20	PA	Monessen High School	K-12	0	0.0	0	3.0	Racial	Monessen High School, Monessen, PA, United States	40.139574	-79.869912
28	1971-09-09	TX	Dunbar High School	K-12	1	0.0	1	3.0	Escalation of Dispute	Dunbar High School, Lubbock, TX, United States	33.5705848	-101.8155127
29	1971-09-24	NY	McKinley Vocational High School	K-12	1	0.0	1	2.0	Escalation of Dispute	McKinley Vocational High School, Buffalo, NY, United States	42.937193	-78.8791182
30	1971-09-28	MN	Central High School	K-12	0	0.0	0	2.0	Escalation of Dispute	Central High School, Minneapolis, MN, United States	44.9489021	-93.1484443
31	1971-09-29	VA	Peabody Junior High School	K-12	1	0.0	1	2.0	Indiscriminate Shooting	Peabody Junior High School, Petersburg, VA, United States	37.1873005	-77.3950615
32	1971-10-28	MD	City College High School	K-12	0	0.0	0	2.0	Escalation of Dispute	City College High School, Baltimore, MD, United States	39.3256435	-76.5969191
33	1971-10-29	MD	Frederick Douglass High School	K-12	0	0.0	0	2.0	Escalation of Dispute	Frederick Douglass High School, Baltimore, MD, United States	39.3147394	-76.6549423
34	1971-10-29	MD	Forest Park High School	K-12	0	0.0	0	2.0	Escalation of Dispute	Forest Park High School, Baltimore, MD, United States	39.3325577	-76.6894252
35	1971-11-03	NM	Carlsbad Mid-High School	K-12	1	1.0	1	3.0	Mental Health	Carlsbad Mid-High School, Carlsbad, NM, United States	32.4291476	-104.234687
36	1971-11-08	OK	Grove Elementary School	K-12	1	0.0	1	2.0	Escalation of Dispute	Grove Elementary School, Grove, OK, United States	36.5873018	-94.7821621
37	1971-11-24	MD	Edmondson Senior High School	K-12	1	0.0	1	4.0	Escalation of Dispute	Edmondson Senior High School, Baltimore, MD, United States	39.2917249	-76.687831
38	1971-12-06	CA	Louis Stevenson Junior High School	K-12	0	0.0	0	2.0	Gang-related	Louis Stevenson Junior High School, Los Angeles, CA, United States	34.0260066	-118.1933118
39	1971-12-13	MD	Carver Vocational High School	K-12	0	0.0	0	2.0	Escalation of Dispute	Carver Vocational High School, Baltimore, MD, United States	39.3044007	-76.6526347
40	1972-01-05	DC	Parkview Elementary School	K-12	1	0.0	1	2.0	Domestic w/ Targeted Victim	Parkview Elementary School, Washington, DC, United States	38.9345928	-77.02139129999999
41	1972-01-24	OH	Stow High School	K-12	0	0.0	0	4.0	Anger Over Grade/Suspension/Discipline	Stow High School, Stow, OH, United States	41.1680875	-81.3971091
42	1972-01-26	MD	Harlem Park Junior High School	K-12	0	0.0	0	2.0	Escalation of Dispute	Harlem Park Junior High School, Baltimore, MD, United States	39.2987111	-76.6411846
43	1972-01-26	MD	Gwynn Falls Junior High School	K-12	0	0.0	0	2.0	Accidental	Gwynn Falls Junior High School, Baltimore, MD, United States	39.3309194	-76.63788679999999
44	1972-02-14	IL	Camlumet High School	K-12	1	0.0	1	2.0	Gang-related	Camlumet High School, Chicago, IL, United States	41.7458355	-87.6520244
45	1972-02-15	IL	Kenwood High School	K-12	1		1	2.0	Officer Involved Shooting	Kenwood High School, Chicago, IL, United States	41.8033311	-87.5893833
46	1972-02-28	CA	Markham Junior High School	K-12	0	0.0	0	2.0	Accidental	Markham Junior High School, Los Angeles, CA, United States	33.9410832	-118.2457641
47	1972-03-13	TX	Unnamed Junior High School	K-12	0	0.0	0	2.0	Accidental	Unnamed Junior High School, Houston, TX, United States	29.7016228	-95.4387495
48	1972-04-12	LA	East Ascension Junior High	K-12	1	1.0	1	2.0	Domestic w/ Targeted Victim	East Ascension Junior High, Gonzales, LA, United States	30.2282633	-90.9150301
49	1972-05-04	NV	Libby Booth Elementary School	K-12	1	0.0	1	2.0	Murder	Libby Booth Elementary School, Reno, NV, United States	39.520756	-119.794594
50	1972-05-05	IN	Decatur Central High School	K-12	1	0.0	1	2.0	Mental Health	Decatur Central High School, Indianapolis, IN, United States	39.6877735	-86.27685989999999
51	1972-09-14	TX	Francis Scott Key Junior High	K-12	0	0.0	0	3.0	Escalation of Dispute	Francis Scott Key Junior High, Houston, TX, United States	29.812152	-95.32972699999999
52	1972-09-15	MI	Saginaw High School	K-12	0	0.0	0	2.0	Unknown	Saginaw High School, Saginaw, MI, United States	43.40630669999999	-83.9257097
53	1972-09-19	TX	Cullen Junior High	K-12	0	0.0	0	3.0	Domestic w/ Targeted Victim	Cullen Junior High, Houston, TX, United States	29.6913412	-95.36382719999999
54	1972-09-21	OH	Thorton Junior High	K-12	0	0.0	0	2.0	Robbery	Thorton Junior High, Akron, OH, United States	41.0663777	-81.5289402
55	1972-11-11	CA	Jefferson High School	K-12	0	0.0	0	2.0	Gang-related	Jefferson High School, Los Angeles, CA, United States	34.0108793	-118.2510101
56	1972-11-27	MI	Pontiac Central High School	K-12	0	0.0	0	2.0	Racial	Pontiac Central High School, Pontiac, MI, United States	42.6389216	-83.29104679999999
57	1972-11-29	FL	Miami Northwest High School	K-12	0	0.0	0	2.0	Escalation of Dispute	Miami Northwest High School, Miami, FL, United States	25.839045	-80.2136695
58	1973-01-05	NC	South Iredell High School	K-12	0	0.0	0	2.0	Racial	South Iredell High School, Statesville, NC, United States	35.7163686	-80.9104741
59	1973-01-18	LA	John Marshall High School	K-12	0	0.0	0	2.0	Robbery	John Marshall High School, Los Angeles, LA, United States	34.1079309	-118.2774744
60	1973-01-31	NC	Cumming High School	K-12	0	0.0	0	2.0	Illegal Drug Related	Cumming High School, Burlington, NC, United States	36.0886279	-79.39663759999999
61	1973-02-12	AL	Booker T. Washington High SChool	K-12	0	0.0	0	2.0	Escalation of Dispute	Booker T. Washington High SChool, Montgomery, AL, United States	32.348503	-86.3559152
62	1973-02-26	VA	Armstrong High School	K-12	1	0.0	1	2.0	Escalation of Dispute	Armstrong High School, Richmond, VA, United States	37.5524906	-77.40387779999999
63	1973-04-05	CA	Locke High School	K-12	0	0.0	0	2.0	Gang-related	Locke High School, Los Angeles, CA, United States	33.9353785	-118.268409
64	1973-05-01	OH	Rayen High School	K-12	0	0.0	0	2.0	Escalation of Dispute	Rayen High School, Youngtown, OH, United States	41.1020962	-80.6477754
65	1973-09-28	CA	Wilson High School	K-12	0	0.0	0	2.0	Escalation of Dispute	Wilson High School, Los Angeles, CA, United States	34.0699853	-118.1862623
66	1973-10-02	IL	Elmhurst Wood Park Community High School	K-12	1	1.0	2	2.0	Murder/Suicide	Elmhurst Wood Park Community High School, Almwood Park, IL, United States	41.9223035	-87.82964679999999
67	1973-10-19	MO	Beaumont High School	K-12	1	0.0	1	2.0	Gang-related	Beaumont High School, St. Louis, MO, United States	38.6625317	-90.2219602
68	1973-10-23	MO	Sumner High School	K-12	0	0.0	0	2.0	Gang-related	Sumner High School, St. Louis, MO, United States	38.6596524	-90.23892320000002
69	1973-10-23	OH	Barberton High School	K-12	0	0.0	0	2.0	Escalation of Dispute	Barberton High School, Barberton, OH, United States	41.0257261	-81.6079922
70	1973-10-24	MN	Central High School	K-12	0	0.0	0	2.0	Escalation of Dispute	Central High School, Minneapolis, MN, United States	44.9489021	-93.1484443
71	1973-10-31	MO	Northwestern High School	K-12	0	0.0	0	2.0	Unknown	Northwestern High School, St. Louis, MO, United States	38.70117219999999	-90.25557529999999
72	1973-11-08	IL	Woodell Phillips High School	K-12	1	0.0	1	2.0	Escalation of Dispute	Woodell Phillips High School, Chicago, IL, United States	41.8240477	-87.6197929
73	1973-11-09	CA	Long Beach Polytechnic High School	K-12	1	0.0	1	2.0	Gang-related	Long Beach Polytechnic High School, Los Angeles, CA, United States	33.7868045	-118.1829363
74	1973-12-06	CA	Fremont High School	K-12	0	0.0	0	2.0	Gang-related	Fremont High School, Los Angeles, CA, United States	33.9698447	-118.2691485
75	1973-12-13	OH	Hughes High School	K-12	0	0.0	0	2.0	Robbery	Hughes High School, Cincinnati, OH, United States	39.128662	-84.52168600000002
76	1974-01-17	IL	Barton Elementary School	K-12	1	0.0	1	2.0	Anger Over Grade/Suspension/Discipline	Barton Elementary School, Chicago, IL, United States	41.7546087	-87.6713822
77	1974-01-22	CA	Locke High School	K-12	1	0.0	1	2.0	Gang-related	Locke High School, Los Angeles, CA, United States	33.9353785	-118.268409
78	1974-02-07	CA	James Madison Junior High School	K-12	1	0.0	2	2.0	Indiscriminate Shooting	James Madison Junior High School, Oakland, CA, United States	37.7266434	-122.179217
79	1974-03-22	IN	Brownstown Central High School	K-12	1	0.0	1	2.0	Unknown	Brownstown Central High School, Brownstown, IN, United States	38.8859036	-86.0457121
80	1974-04-02	CT	St. Stephen's Parochial School	K-12	0	0.0	0	2.0	Unknown	St. Stephen's Parochial School, Bridgeport, CT, United States	41.1602885	-73.215892
81	1974-05-10	TN	Church Hill High School	K-12	1	0.0	1	3.0	Escalation of Dispute	Church Hill High School, Rogersville, TN, United States	36.5259569	-82.7101101
82	1974-05-19	FL	Highlands Elementary School	K-12	0	0.0	0	2.0	Domestic w/ Targeted Victim	Highlands Elementary School, Orlando, FL, United States	28.317647	-81.411492
83	1974-09-23	CA	Jefferson High School	K-12	0	0.0	0	2.0	Escalation of Dispute	Jefferson High School, Daly City, CA, United States	37.6956653	-122.4660072
84	1974-09-25	CA	San Fernando High School	K-12	0	0.0	0	2.0	Escalation of Dispute	San Fernando High School, Los Angeles, CA, United States	34.2728671	-118.4428079
85	1974-10-07	LA	Destrehan High School	K-12	1	0.0	1	3.0	Racial	Destrehan High School, Hahnville, LA, United States	29.9651555	-90.38308549999999
86	1974-10-21	MD	Douglass High School	K-12	0	0.0	0	2.0	Murder	Douglass High School, Baltimore, MD, United States	39.3147394	-76.6549423
87	1974-11-18	SC	C. A. Brown High School	K-12	0	0.0	0	2.0	Gang-related	C. A. Brown High School, Charleston, SC, United States	32.7979541	-79.9361991
88	1974-11-21	AR	Booker Junior High School	K-12	1	0.0	1	2.0	Escalation of Dispute	Booker Junior High School, Little Rock, AR, United States	34.7289811	-92.26181609999999
89	1974-11-25	SC	C. A. Brown High School	K-12	0	0.0	0	2.0	Gang-related	C. A. Brown High School, Charleston, SC, United States	32.7979541	-79.9361991
90	1974-12-18	CA	Manual Arts High School	K-12	1	0.0	1	2.0	Gang-related	Manual Arts High School, Los Angeles, CA, United States	34.0082618	-118.2921733
91	1974-12-30	NY	Olean High School	K-12	1	0.0	3	3.0	Indiscriminate Shooting	Olean High School, Olean, NY, United States	42.0825621	-78.4345543
92	1975-02-07	NY	Board of Cooperative Educational Services	K-12	0	1.0	0	2.0	Suicide/Attempted	Board of Cooperative Educational Services, Minola, NY, United States	40.761799	-73.368906
93	1975-02-24	NJ	St. James School	K-12	1	0.0	1	2.0	Mental Health	St. James School, Penns Grove, NJ, United States	39.726944	-75.4722898
94	1975-03-12	TX	Jones High School	K-12	0	0.0	0	3.0	Escalation of Dispute	Jones High School, Houston, TX, United States	29.6741447	-95.3399432
95	1975-03-18	MO	Sumner High School	K-12	1	0.0	1	2.0	Escalation of Dispute	Sumner High School, St. Louis, MO, United States	38.6596524	-90.23892320000002
96	1975-03-21	VA	Fairmount Elementary School	K-12	0	0.0	0	2.0	Accidental	Fairmount Elementary School, Richmond, VA, United States	39.1107209	-94.45817249999999
97	1975-03-21	OH	Patterson Cooperative High School	K-12	0	0.0	0	2.0	Robbery	Patterson Cooperative High School, Dayton, OH, United States	39.759123	-84.175196
98	1975-05-15	MO	Rock Junior High School	K-12	0	0.0	0	2.0	Anger Over Grade/Suspension/Discipline	Rock Junior High School, St. Louis, MO, United States	38.62699509999999	-90.14844269999999
99	1975-05-27	MI	Pitcher School	K-12	1	0.0	1	2.0	Escalation of Dispute	Pitcher School, Detroit, MI, United States	42.4365893	-83.2285989
100	1975-07-09	IL	Dett Elementary School	K-12	0	0.0	0	2.0	Domestic w/ Targeted Victim	Dett Elementary School, Chicago, IL, United States	41.8797104	-87.6804568
101	1975-07-11	MO	Central High School	K-12	0	0.0	0	2.0	Escalation of Dispute	Central High School, St. Louis, MO, United States	38.6046182	-90.2708809
102	1975-09-11	OK	Grant High School	K-12	1	0.0	1	5.0	Racial	Grant High School, Oklahoma City, OK, United States	35.4154053	-97.5447626
103	1975-10-01	NM	Hermosa Elementary School	K-12	1	0.0	1	3.0	Unknown	Hermosa Elementary School, Artesia, NM, United States	32.8272176	-104.4035617
104	1975-10-24	GA	Murphy High School	K-12	0	0.0	0	2.0	Anger Over Grade/Suspension/Discipline	Murphy High School, Atlanta, GA, United States	33.7465027	-84.33124649999999
105	1975-12-18	CA	Orange High School	K-12	0	0.0	0	2.0	Escalation of Dispute	Orange High School, Santa Ana, CA, United States	33.7963832	-117.8483638
106	1976-01-01	AZ	Camelback High School	K-12	0	0.0	0	2.0	Intentional Property Damage	Camelback High School, Phoenix, AZ, United States	33.50538179999999	-112.0232069
107	1976-01-23	OH	Columbus Central High School	K-12	1	0.0	1	2.0	Unknown	Columbus Central High School, Columbus, OH, United States	39.9577849	-83.02285719999999
108	1976-02-06	FL	Escambia High School	K-12	0	0.0	0	3.0	Racial	Escambia High School, Pensacola, FL, United States	30.4268169	-87.2996598
109	1976-02-12	MI	Murray-Wright High School	K-12	0	0.0	0	2.0	Escalation of Dispute	Murray-Wright High School, Detroit, MI, United States	42.3494717	-83.0836558
110	1976-04-12	TX	O. D. Wyatt High School	K-12	1	0.0	1	2.0	Escalation of Dispute	O. D. Wyatt High School, Fort Worth, TX, United States	32.6836655	-97.2942525
111	1976-05-13	MO	Mark Twain School	K-12	0	0.0	0	2.0	Escalation of Dispute	Mark Twain School, St. Louis, MO, United States	38.6165583	-90.34347559999999
112	1976-05-14	FL	Palm Beach Gardens High School	K-12	0	0.0	0	2.0	Escalation of Dispute	Palm Beach Gardens High School, West Palm Beach, FL, United States	26.825103	-80.101136
113	1976-06-02	MD	Mt. Savage High School	K-12	0	0.0	0	2.0	Intentional Property Damage	Mt. Savage High School, Cumberland, MD, United States	39.700877	-78.8802608
114	1976-09-20	NC	Guildord County School Bus	K-12	1	1.0	1	2.0	Suicide/Attempted	Guildord County School Bus, Greensboro, NC, United States	36.0791926	-79.7412446
115	1976-11-10	MI	Burt Elementary School	K-12	1	0.0	1	2.0	Domestic w/ Targeted Victim	Burt Elementary School, Detroit, MI, United States	42.4065389	-83.2445568
116	1976-12-10	MO	Fremont School	K-12	0	0.0	0	2.0	Unknown	Fremont School, St. Louis, MO, United States	38.6006072	-90.21900099999999
117	1977-01-13	IL	Old Main Eisenhower High School	K-12	0	0.0	0	2.0	Escalation of Dispute	Old Main Eisenhower High School, Blue Island, IL, United States	41.6616695	-87.69595389999999
118	1977-02-09	IL	Fenger High School	K-12	1	0.0	1	2.0	Escalation of Dispute	Fenger High School, Chicago, IL, United States	41.6897069	-87.63784
119	1977-02-28	TX	Horace Mann Junior High School	K-12	0	0.0	0	2.0	Escalation of Dispute	Horace Mann Junior High School, Amarillo, TX, United States	35.218386	-101.8287968
120	1977-02-28	MO	Roosevelt High School	K-12	0	0.0	0	4.0	Escalation of Dispute	Roosevelt High School, St. Louis, MO, United States	38.6002121	-90.2368527
121	1977-03-08	IL	Collinsville High School	K-12	0	0.0	0	2.0	Anger Over Grade/Suspension/Discipline	Collinsville High School, Edwardsville, IL, United States	38.64698	-90.01134300000001
122	1977-03-21	NY	Parochial School	K-12	0	0.0	0	2.0	Accidental	Parochial School, Hamburg, NY, United States	42.7164618	-78.8265845
123	1977-04-07	TX	Whitharral High School	K-12	1	0.0	1	3.0	Mental Health	Whitharral High School, Whitharral, TX, United States	33.7378829	-102.3266243
124	1977-04-18	TN	Pioneer Christian Academy	K-12	1	0.0	1	2.0	Domestic w/ Targeted Victim	Pioneer Christian Academy, Nashville, TN, United States	36.296088	-86.773883
125	1977-05-17	FL	Stone Middle School	K-12	0	0.0	0	2.0	Intentional Property Damage	Stone Middle School, Cocoa, FL, United States	28.3758887	-80.75599679999999
126	1977-06-22	IL	Holy Trinity High School	K-12	0	0.0	0	2.0	Escalation of Dispute	Holy Trinity High School, Chicago, IL, United States	41.9032469	-87.6639604
127	1977-07-11	CO	South Junior High School	K-12	0	0.0	0	2.0	Unknown	South Junior High School, Colorado Springs, CO, United States	38.783289	-104.821372
128	1977-11-29	MO	Vashon High School	K-12	0	0.0	0	2.0	Unknown	Vashon High School, St. Louis, MO, United States	38.6480243	-90.2210954
129	1977-11-29	MO	Hazelwood Central Senior High School	K-12	0	0.0	0	2.0	Indiscriminate Shooting	Hazelwood Central Senior High School, St. Louis, MO, United States	38.8301158	-90.31588339999999
130	1977-12-09	CA	Petaluma McNear Elementary	K-12	0	0.0	0	2.0	Domestic w/ Targeted Victim	Petaluma McNear Elementary, Santa Rosa, CA, United States	38.2231456	-122.6365764
131	1977-12-12	FL	West Orange High School	K-12	1	0.0	1	2.0	Murder	West Orange High School, Winter Garden, FL, United States	28.5406621	-81.56842750000001
132	1977-12-15	MA	Blue Hills Vocational High School	K-12	0	0.0	0	2.0	Unknown	Blue Hills Vocational High School, Canton, MA, United States	42.1834614	-71.1032982
133	1978-01-11	KY	Christian County Middle School	K-12	0	0.0	0	2.0	Escalation of Dispute	Christian County Middle School, Hopkinsville, KY, United States	36.8765176	-87.4914568
134	1978-02-09	WV	Hayes Junior High School	K-12	1	0.0	1	2.0	Bullying	Hayes Junior High School, St. Albans, WV, United States	38.3732171	-81.8419885
135	1978-02-22	MI	Everett High School	K-12	1	0.0	1	2.0	Bullying	Everett High School, Lansing, MI, United States	42.6931191	-84.55677899999999
136	1978-03-09	CA	Monroe Elementary School	K-12	0	0.0	0	2.0	Accidental	Monroe Elementary School, Santa Rosa, CA, United States	38.456273	-122.752481
137	1978-03-29	TN	Gallatin Junior High School	K-12	0	0.0	0	2.0	Racial	Gallatin Junior High School, Nashville, TN, United States	36.0571742	-86.7239333
138	1978-04-14	MI	Fordson High School	K-12	0	0.0	0	2.0	Unknown	Fordson High School, Detroit, MI, United States	42.3306114	-83.1787564
139	1978-04-26	TX	Paul Dunbar Elementary School	K-12	1	0.0	1	3.0	Anger Over Grade/Suspension/Discipline	Paul Dunbar Elementary School, Dallas, TX, United States	32.7749288	-96.7493497
140	1978-04-28	IL	Ridgewood High School	K-12	1	0.0	2	2.0	Unknown	Ridgewood High School, Norridge, IL, United States	41.9613366	-87.8151834
141	1978-05-18	TX	Murchison Junior High School	K-12	1	0.0	1	3.0	Anger Over Grade/Suspension/Discipline	Murchison Junior High School, Austin, TX, United States	30.3540274	-97.7586065
142	1978-05-19	PA	Downtown Junior High School	K-12	0	0.0	0	2.0	Unknown	Downtown Junior High School, Philadelphia, PA, United States	39.9578906	-75.2385149
143	1978-06-07	DE	Dover Air High	K-12	1	0.0	1	2.0	Accidental	Dover Air High, Dover, DE, United States	39.12773	-75.4684352
144	1978-06-10	MA	Weymouth South High School	K-12	0	1.0	0	2.0	Suicide/Attempted	Weymouth South High School, Weymouth, MA, United States	42.182334	-70.94324499999999
145	1978-10-17	AL	Lanett Junior High School	K-12	0	0.0	0	2.0	Anger Over Grade/Suspension/Discipline	Lanett Junior High School, Lanett, AL, United States	32.8565288	-85.1970425
146	1978-10-17	MO	University City High School	K-12	0	0.0	0	2.0	Escalation of Dispute	University City High School, University City, MO, United States	38.66508779999999	-90.3293029
147	1978-11-29	NY	Park West High School	K-12	0	0.0	0	2.0	Accidental	Park West High School, New York, NY, United States	40.7653291	-73.9930871
148	1978-12-14	CT	Wilbur Cross High School	K-12	1	0.0	1	2.0	Robbery	Wilbur Cross High School, New Haven, CT, United States	41.3239572	-72.90760709999999
149	1979-01-29	CA	Grover Cleveland Elementary School	K-12	1	0.0	3	2.0	Mental Health	Grover Cleveland Elementary School, San Diego, CA, United States	32.7970777	-117.0113626
150	1979-03-14	FL	McArthur High School North	K-12	0	0.0	0	2.0	Robbery	McArthur High School North, Miami, FL, United States	26.0122991	-80.21739
151	1979-03-28	CA	Los Angeles High School	K-12	0	0.0	0	2.0	Robbery	Los Angeles High School, Los Angeles, CA, United States	34.0554228	-118.3329959
152	1979-04-16	WI	Wisconsin Lutheran High School	K-12	0	0.0	0	2.0	Self Defense	Wisconsin Lutheran High School, Milwaukee, WI, United States	43.0337278	-88.0163883
153	1979-04-25	PA	Martin L. Mattei Junior High School	K-12	0	0.0	0	2.0	Accidental	Martin L. Mattei Junior High School, Hughestown, PA, United States	41.33292480000001	-75.7794809
154	1979-04-26	TX	Azle Junior High School	K-12	1	0.0	1	2.0	Escalation of Dispute	Azle Junior High School, Azle, TX, United States	32.89249	-97.52997789999999
155	1979-06-14	OH	New Carlisle Elementary School	K-12	1	0.0	1	2.0	Accidental	New Carlisle Elementary School, New Carlisle, OH, United States	39.949418	-84.03342400000001
156	1979-09-26	LA	Carter G. Woodson Middle School	K-12	0	0.0	0	2.0	Escalation of Dispute	Carter G. Woodson Middle School, New Orleans, LA, United States	29.9396352	-90.09104839999999
157	1979-09-28	MA	Charlestown High School	K-12	0	0.0	0	3.0	Racial	Charlestown High School, Charlestown, MA, United States	42.3804138	-71.06095909999999
158	1979-10-23	MO	O'Fallen Technical High School	K-12	0	0.0	0	2.0	Escalation of Dispute	O'Fallen Technical High School, St. Louis, MO, United States	38.6214499	-90.26977529999999
159	1979-11-05	IN	Washington High School	K-12	0	0.0	0	2.0	Unknown	Washington High School, Indianapolis, IN, United States	39.7655047	-86.1991647
160	1979-11-30	TX	Not listed	K-12	0	0.0	0	3.0	Unknown	Not listed, Lewisville, TX, United States	33.046233	-96.994174
161	1979-12-03	MD	Eastern High School	K-12	0	0.0	0	2.0	Gang-related	Eastern High School, Baltimore, MD, United States	39.3273023	-76.6003569
162	1979-12-21	MO	Blewett Middle School	K-12	0	0.0	0	2.0	Escalation of Dispute	Blewett Middle School, St. Louis, MO, United States	38.6434234	-90.20372189999999
163	1980-01-07	AR	Stamps High School	K-12	1	0.0	1	2.0	Mental Health	Stamps High School, Stamps, AR, United States	33.3698711	-93.4810849
164	1980-01-29	VA	Lafayette High School	K-12	0	1.0	0	2.0	Suicide/Attempted	Lafayette High School, Williamsburg, VA, United States	37.3157667	-76.7639812
165	1980-02-01	DC	Langdon Elementary School	K-12	0	0.0	0	2.0	Accidental	Langdon Elementary School, Washington, DC, DC, United States	38.924521	-76.977459
166	1980-02-07	TX	Valley View Elementary School	K-12	0	0.0	0	2.0	Accidental	Valley View Elementary School, Longview, TX, United States	32.509714	-94.716943
167	1980-02-11	IN	Arsenal Technical High School	K-12	0	0.0	0	2.0	Illegal Drug Related	Arsenal Technical High School, Indianapolis, IN, United States	39.7773318	-86.1327721
168	1980-02-15	MS	Hughes School	K-12	1	0.0	1	2.0	Domestic w/ Targeted Victim	Hughes School, McComb, MS, United States	31.2504946	-90.46317409999999
169	1980-03-20	TX	J. Leslie Patton School	K-12	1	0.0	1	2.0	Domestic w/ Targeted Victim	J. Leslie Patton School, Dallas, TX, United States	32.7043182	-96.82309049999999
170	1980-03-31	MD	Frederick Douglass Senior High School	K-12	0	0.0	0	2.0	Escalation of Dispute	Frederick Douglass Senior High School, Baltimore, MD, United States	39.3147394	-76.6549423
171	1980-04-17	VA	Capeville Elementary School	K-12	1	0.0	2	2.0	Domestic w/ Targeted Victim	Capeville Elementary School, Capeville, VA, United States	37.1995849	-75.9585417
172	1980-05-30	NY	Clara Barton High School	K-12	0	0.0	0	2.0	Accidental	Clara Barton High School, Brooklyn, NY, United States	40.6695301	-73.9618677
173	1980-09-02	CA	Whittier High School	K-12	0	0.0	0	2.0	Gang-related	Whittier High School, Los Angeles, CA, United States	33.98102280000001	-118.0447992
174	1980-09-08	FL	Forrest HIgh School	K-12	0	0.0	0	2.0	Escalation of Dispute	Forrest HIgh School, Jacksonville, FL, United States	30.2464887	-81.76572019999999
175	1980-09-10	DC	Springarn High School	K-12	1	0.0	1	2.0	Accidental	Springarn High School, Washington, DC, United States	38.8994175	-76.9706681
176	1980-09-11	AL	John S. Shaw High School	K-12	1	0.0	1	2.0	Escalation of Dispute	John S. Shaw High School, Mobile, AL, United States	30.7174109	-88.1837833
177	1980-09-26	CT	Bridgeport Central High School	K-12	0	0.0	0	2.0	Indiscriminate Shooting	Bridgeport Central High School, Bridgeport, CT, United States	41.1889732	-73.20548769999999
178	1980-10-13	AL	Central High School	K-12	0	0.0	0	2.0	Unknown	Central High School, Tuscaloosa, AL, United States	33.1981643	-87.5490995
179	1980-10-31	AL	Hueytown High School	K-12	1	1.0	1	2.0	Escalation of Dispute	Hueytown High School, Hueytown, AL, United States	33.43043	-87.033017
180	1980-11-17	TX	Eastern Hills High School	K-12	0	0.0	0	2.0	Escalation of Dispute	Eastern Hills High School, Fort Worth, TX, United States	32.7480228	-97.2327569
181	1980-12-12	OH	Longfellow Junior HIgh School	K-12	0	0.0	0	2.0	Hostage Standoff	Longfellow Junior HIgh School, Lorain, OH, United States	41.4740474	-82.154833
182	1980-12-12	AL	Parker High School	K-12	0	0.0	0	2.0	Unknown	Parker High School, Birmingham, AL, United States	33.5151756	-86.8296064
183	1981-01-21	OH	Willetts Middle School	K-12	0	0.0	0	2.0	Unknown	Willetts Middle School, Brunswick, OH, United States	41.246831	-81.8204183
184	1981-01-22	MD	Francis M. Wood Senior High School	K-12	0	0.0	0	2.0	Escalation of Dispute	Francis M. Wood Senior High School, Baltimore, MD, United States	39.2919102	-76.6343826
185	1981-02-10	CA	Manuel Arts High School	K-12	1	0.0	1	2.0	Gang-related	Manuel Arts High School, Los Angeles, CA, United States	34.0082618	-118.2921733
186	1981-02-10	AR	Little Rock Hall High School	K-12	0	0.0	0	3.0	Escalation of Dispute	Little Rock Hall High School, Little Rock, AR, United States	34.7605212	-92.3474361
187	1981-03-03	IN	Marshall High School 	K-12	0	0.0	0	2.0	Escalation of Dispute	Marshall High School , Indianapolis, IN, United States	39.8251187	-85.9895105
188	1981-03-28	FL	Dillard High School	K-12	1	0.0	1	2.0	Escalation of Dispute	Dillard High School, Fort Lauderdale, FL, United States	26.1396503	-80.1759107
189	1981-04-02	OH	Alexander Hamilton Junior High School	K-12	0	0.0	0	3.0	Escalation of Dispute	Alexander Hamilton Junior High School, Cleveland, OH, United States	41.464486	-81.591247
190	1981-04-07	MS	Poplarville High School	K-12	0	0.0	0	2.0	Unknown	Poplarville High School, Poplarville, MS, United States	30.8321598	-89.5252857
191	1981-05-15	LA	New Iberia Junior HIgh School	K-12	0	0.0	0	2.0	Domestic w/ Targeted Victim	New Iberia Junior HIgh School, New Iberia, LA, United States	30.0093179	-91.8377423
192	1981-09-08	FL	Stuart Middle School	K-12	0	0.0	0	2.0	Accidental	Stuart Middle School, West Palm Beach, FL, United States	27.1960073	-80.2455621
193	1981-09-01	PA	William Longstreth Elementary School	K-12	0	0.0	0	2.0	Gang-related	William Longstreth Elementary School, Philadelphia, PA, United States	39.94060109999999	-75.23246189999999
194	1981-09-04	NM	Hobbs High School	K-12	0	0.0	0	3.0	Unknown	Hobbs High School, Santa Fe, NM, United States	32.7094027	-103.1218759
195	1981-09-13	MD	Aberdeen High School	K-12	1		1	2.0	Officer Involved Shooting	Aberdeen High School, Aberdeen, MD, United States	39.5163227	-76.1711603
196	1981-10-13	CT	Hartford Public High School	K-12	0	0.0	0	3.0	Escalation of Dispute	Hartford Public High School, Hartford, CT, United States	41.7652258	-72.7010105
197	1981-12-09	NY	George W. Wingate High School	K-12	1	0.0	1	2.0	Robbery	George W. Wingate High School, Brooklyn, NY, United States	40.659109	-73.9430868
198	1981-12-16	TX	Unnamed school	K-12	0	0.0	0	2.0	Escalation of Dispute	Unnamed school, Houston, TX, United States	29.7273577	-95.39078049999999
199	1981-12-23	NY	James Madison High School	K-12	1	0.0	1	2.0	Escalation of Dispute	James Madison High School, Brooklyn, NY, United States	40.6101298	-73.947968
200	1982-02-05	TN	Hamilton High School	K-12	1	0.0	1	2.0	Robbery	Hamilton High School, Memphis, TN, United States	35.0999995	-90.0167743
201	1982-02-08	MA	Dorchester High School	K-12	0	0.0	0	3.0	Accidental	Dorchester High School, Dorchester, MA, United States	42.285317	-71.075862
202	1982-02-09	LA	John McDonough Senior High	K-12	1	0.0	1	2.0	Escalation of Dispute	John McDonough Senior High, New Orleans, LA, United States	29.9743098	-90.0765232
203	1982-03-15	OR	Springfield High School	K-12	1	1.0	1	2.0	Suicide/Attempted	Springfield High School, Springfield, OR, United States	44.0535256	-123.0158084
204	1982-03-17	OH	Lorain High School	K-12	0	1.0	0	2.0	Suicide/Attempted	Lorain High School, Lorain, OH, United States	41.4465496	-82.1904797
205	1982-03-19	NV	Valley High School	K-12	1	0.0	1	4.0	Mental Health	Valley High School, Las Vegas, NV, United States	36.13815470000001	-115.1210027
206	1982-04-07	CO	Deer Creek Junior High School	K-12	1	0.0	1	3.0	Unknown	Deer Creek Junior High School, Littleton, CO, United States	39.5867127	-105.1019619
207	1982-04-15	MD	Forest Park Senior High School	K-12	0	0.0	0	2.0	Robbery	Forest Park Senior High School, Baltimore, MD, United States	39.3325577	-76.6894252
208	1982-04-29	GA	Russell High School	K-12	1	0.0	1	2.0	Accidental	Russell High School, East Point, GA, United States	34.0054682	-83.7347927
209	1982-04-30	FL	Anniston High School	K-12	0	0.0	0	2.0	Escalation of Dispute	Anniston High School, Anniston, FL, United States	33.6609605	-85.8201258
210	1982-05-27	NV	Garside Junior High School	K-12	0	0.0	0	2.0	Unknown	Garside Junior High School, Las Vegas, NV, United States	36.16978170000001	-115.2341179
211	1982-09-10	VA	Lake Braddock Secondary School	K-12	0	0.0	0	2.0	Domestic w/ Targeted Victim	Lake Braddock Secondary School, Burke, VA, United States	38.803391	-77.26517199999999
212	1982-09-15	AR	South West Middle School	K-12	0	1.0	0	2.0	Suicide/Attempted	South West Middle School, Pine Bluff, AR, United States	34.2094725	-91.9890037
213	1982-11-01	NY	Elmont Memorial High School	K-12	0	0.0	0	2.0	Escalation of Dispute	Elmont Memorial High School, Elmont, NY, United States	40.696994	-73.71790419999999
214	1982-11-08	MI	Cooley High School	K-12	0	0.0	0	2.0	Accidental	Cooley High School, Detroit, MI, United States	42.400462	-83.191217
215	1982-11-12	MS	Wingfield High School	K-12	1	1.0	2	2.0	Murder/Suicide	Wingfield High School, Jackson, MS, United States	32.2803997	-90.2417644
216	1982-12-06	AL	Huntsville High School	K-12	1	1.0	1	3.0	Suicide/Attempted	Huntsville High School, Huntsville, AL, United States	34.712514	-86.583668
217	1982-12-20	MI	Finney High School	K-12	0	0.0	0	3.0	Robbery	Finney High School, Detroit, MI, United States	42.390245	-82.95343249999999
218	1983-01-18	TX	John H. Reagan High School	K-12	1	1.0	2	3.0	Murder/Suicide 	John H. Reagan High School, Houston, TX, United States	29.7954163	-95.3930864
219	1983-01-20	MO	Parkway South Middle School	K-12	1	1.0	2	2.0	Bullying	Parkway South Middle School, Baldwin, MO, United States	38.6101605	-90.5074545
220	1983-01-28	MD	William H. Lemmel Middle School	K-12	0	0.0	0	2.0	Accidental	William H. Lemmel Middle School, Baltimore, MD, United States	39.3188328	-76.66443749999999
221	1983-01-30	TX	West Ward School	K-12	1	0.0	1	2.0	Escalation of Dispute	West Ward School, Coleman, TX, United States	31.8315345	-99.43312019999999
222	1983-01-31	FL	DeLand High School	K-12	0	1.0	0	2.0	Suicide/Attempted	DeLand High School, DeLand, FL, United States	29.0412243	-81.28400250000001
223	1983-02-01	TN	Riverdale High School	K-12	0	0.0	0	2.0	Accidental	Riverdale High School, Murfreesboro, TN, United States	35.81539	-86.410169
224	1983-02-02	NM	Albuquerque High School	K-12	0	0.0	0	2.0	Indiscriminate Shooting	Albuquerque High School, Alburquerque, NM, United States	35.096572	-106.63567
225	1983-03-31	IL	Santa Maria InCornata-Santa Lucia School	K-12	0	0.0	0	2.0	Anger Over Grade/Suspension/Discipline	Santa Maria InCornata-Santa Lucia School, Chicago, IL, United States	41.8390596	-87.63323079999999
226	1983-04-21	MO	Beaumont High School	K-12	0	0.0	0	2.0	Escalation of Dispute	Beaumont High School, St. Louis, MO, United States	38.6625317	-90.2219602
227	1983-05-16	TX	Lake Highland High School	K-12	1	0.0	1	2.0	Robbery	Lake Highland High School, Dallas, TX, United States	32.8878008	-96.7268213
228	1983-05-16	NY	Brentwood High School	K-12	1	1.0	1	2.0	Hostage Standoff	Brentwood High School, New York, NY, United States	40.7736168	-73.2550238
229	1983-05-18	FL	North Miami Senior High School	K-12	0	0.0	0	2.0	Escalation of Dispute	North Miami Senior High School, Miami, FL, United States	25.8969252	-80.184148
230	1983-05-23	OH	Mansfield Senior High School	K-12	0	0.0	0	2.0	Escalation of Dispute	Mansfield Senior High School, Mansfield, OH, United States	40.7623161	-82.5433523
231	1983-05-26	PA	Greater Johnstown High School	K-12	1	1.0	1	2.0	Accidental	Greater Johnstown High School, Johnstown, PA, United States	40.3031728	-78.9097287
232	1983-09-12	MI	Henry Ford High School	K-12	1	0.0	1	2.0	Gang-related	Henry Ford High School, Detroit, MI, United States	42.4396448	-83.2376357
233	1983-09-12	CA	Manuel Dominguez High School	K-12	0	0.0	0	2.0	Gang-related	Manuel Dominguez High School, Compton, CA, United States	33.892444	-118.1817663
234	1983-09-21	MD	Walbrook High School	K-12	0	0.0	0	2.0	Accidental	Walbrook High School, Baltimore, MD, United States	39.309954	-76.677904
235	1993-09-28	MS	Coleman Junior High School	K-12	1	0.0	1	2.0	Escalation of Dispute	Coleman Junior High School, Greenville, MS, United States	33.4077355	-91.03855659999999
236	1983-09-30	TX	Temple High School	K-12	0	0.0	0	2.0	Escalation of Dispute	Temple High School, Temple, TX, United States	31.1062802	-97.353633
237	1983-10-07	CA	Compton High School	K-12	0	0.0	0	2.0	Gang-related	Compton High School, Los Angeles, CA, United States	33.8903235	-118.22723
238	1983-10-22	MD	Carver Vocational-Technical Senior High	K-12	1	0.0	1	2.0	Unknown	Carver Vocational-Technical Senior High, Baltimore, MD, United States	39.3044007	-76.6526347
239	1983-11-08	MI	Highland Park High School	K-12	1	0.0	1	2.0	Escalation of Dispute	Highland Park High School, Highland Park, MI, United States	42.4069104	-83.0951852
240	1983-11-17	IL	James G. Blaine Elementary School	K-12	1	0.0	1	2.0	Gang-related	James G. Blaine Elementary School, Chicago, IL, United States	41.9509619	-87.664931
241	1983-11-18	MD	Harlem Park Junior High School	K-12	1	0.0	1	2.0	Robbery	Harlem Park Junior High School, Baltimore, MD, United States	39.2987111	-76.6411846
242	1983-12-02	IN	Crawfordsville High School	K-12	0	0.0	0	2.0	Escalation of Dispute	Crawfordsville High School, Crawfordsville, IN, United States	40.0209269	-86.90744409999999
243	1983-12-16	IL	Boylan Central Catholic High School	K-12	0	0.0	0	2.0	Anger Over Grade/Suspension/Discipline	Boylan Central Catholic High School, Rockford, IL, United States	42.319951	-89.084096
244	1984-01-05	MD	Lake Clifton Senior HIgh School	K-12	0	0.0	0	2.0	Escalation of Dispute	Lake Clifton Senior HIgh School, Baltimore, MD, United States	39.3163674	-76.5896443
245	1984-02-06	KY	Central High School	K-12	0	0.0	0	2.0	Escalation of Dispute	Central High School, Louisville, KY, United States	38.2502019	-85.7707066
246	1984-02-21	TX	Sharpstown High School	K-12	0	0.0	0	2.0	Anger Over Grade/Suspension/Discipline	Sharpstown High School, Houston, TX, United States	29.6834509	-95.5166998
247	1984-02-24	CA	49th Street Elementary School	K-12	1	1.0	2	3.0	Mental Health	49th Street Elementary School, Los Angeles, CA, United States	33.9985521	-118.2617955
248	1984-04-05	LA	Clinton High School	K-12	0	0.0	0	2.0	Escalation of Dispute	Clinton High School, Clinton, LA, United States	30.8626807	-91.0137148
249	1984-04-20	MI	Precious Blood School	K-12	1	0.0	1	2.0	Accidental	Precious Blood School, Detroit, MI, United States	42.4136067	-83.1775163
250	1984-04-26	NC	Rose Hill Magnolia Elementary School	K-12	0	1.0	0	2.0	Suicide/Attempted	Rose Hill Magnolia Elementary School, Wallace, NC, United States	34.85104	-78.024087
251	1984-05-15	MT	C.M. Russell High School	K-12	0	1.0	0	2.0	Suicide/Attempted	C.M. Russell High School, Great Falls, MT, United States	47.52026859999999	-111.3192554
252	1984-05-17	IA	Southeast Polk High School	K-12	1	1.0	2	2.0	Murder/Suicide	Southeast Polk High School, Pleasant Hill, IA, United States	41.5982043	-93.44592469999999
253	1984-05-17	TX	Booker T. Washington High School	K-12	1	1.0	1	2.0	Domestic w/ Targeted Victim	Booker T. Washington High School, Houston, TX, United States	29.8218559	-95.3988651
254	1984-05-18	CA	Norco High School	K-12	0	0.0	0	2.0	Escalation of Dispute	Norco High School, Norco, CA, United States	33.91183240000001	-117.5466912
255	1984-05-22	OH	Cleveland Heights High School	K-12	0	0.0	0	2.0	Accidental	Cleveland Heights High School, Cleveland Heights, OH, United States	41.502201	-81.56294799999999
256	1984-07-10	MI	Mumford High School	K-12	0	0.0	0	2.0	Gang-related	Mumford High School, Detroit, MI, United States	42.4213221	-83.1646032
257	1984-08-31	LA	Booker T. Washington High School	K-12	0	0.0	0	2.0	Gang-related	Booker T. Washington High School, Shreveport, LA, United States	32.5040265	-93.774143
258	1984-09-28	TX	Richland High School	K-12	0	0.0	0	2.0	Indiscriminate Shooting	Richland High School, North Richland Hills, TX, United States	32.8423902	-97.2301196
259	1984-09-28	TX	Millsap Elementary School	K-12	0	0.0	0	2.0	Indiscriminate Shooting	Millsap Elementary School, Houston, TX, United States	29.9545572	-95.62994119999999
260	1984-10-21	PA	Wyoming Area High School	K-12	0	0.0	0	2.0	Unknown	Wyoming Area High School, Exeter, PA, United States	41.3223636	-75.8112451
261	1984-10-22	MI	Central High School	K-12	0	0.0	0	3.0	Escalation of Dispute	Central High School, Detroit, MI, United States	42.38358909999999	-83.11178269999999
262	1984-10-24	MI	Southeastern High School	K-12	0	0.0	0	3.0	Accidental	Southeastern High School, Detroit, MI, United States	42.3749097	-82.9784229
263	1984-10-24	OH	West Elementary School Bus	K-12	1	0.0	1	2.0	Domestic w/ Targeted Victim	West Elementary School Bus, Celina, OH, United States	40.54665749999999	-84.58839379999999
264	1984-10-30	SC	Pendleton High School	K-12	0	0.0	0	2.0	Escalation of Dispute	Pendleton High School, Pendleton, SC, United States	34.6123586	-82.7839597
265	1984-10-31	LA	East Ascension High School	K-12	1	0.0	1	3.0	Escalation of Dispute	East Ascension High School, Gonzales, LA, United States	30.2282633	-90.9150301
266	1984-11-26	MD	Millford Mill High School	K-12	0	0.0	0	2.0	Robbery	Millford Mill High School, Rockdale, MD, United States	39.3570339	-76.7497051
267	1984-12-07	MO	Edwardsville High School	K-12	0	0.0	0	2.0	Mental Health	Edwardsville High School, St. Louis, MO, United States	38.78875499999999	-89.97524899999999
268	1985-01-18	TX	Arlington High School	K-12	1	1.0	1	3.0	Suicide/Attempted	Arlington High School, Arlington, TX, United States	32.72078510000001	-97.1167816
269	1985-01-21	KS	Goddard Junior High School	K-12	1	0.0	1	2.0	Indiscriminate Shooting	Goddard Junior High School, Goddard, KS, United States	37.6545214	-97.5769722
270	1985-01-26	MA	St. Gregory's High School	K-12	0	0.0	0	2.0	Racial	St. Gregory's High School, Boston, MA, United States	42.274377	-71.0671306
271	1985-02-05	CT	A.I. Prince Technical High School	K-12	0	0.0	0	2.0	Escalation of Dispute	A.I. Prince Technical High School, Hartford, CT, United States	41.7416983	-72.7057918
272	1985-04-16	TX	MacArthur Senior High School	K-12	0	0.0	0	1.0	Officer Involved Shooting	MacArthur Senior High School, Aldine, TX, United States	29.9010829	-95.3288719
273	1985-05-16	FL	Parrott Junior High School	K-12	0	1.0	0	2.0	Suicide/Attempted	Parrott Junior High School, Brookville, FL, United States	28.5911296	-82.413705
274	1985-07-24	TX	Highland Park High School	K-12	0	0.0	0	2.0	Escalation of Dispute	Highland Park High School, Highland Park, TX, United States	32.8473091	-96.8074692
275	1985-09-04	VA	East End Middle School (bus)	K-12	0	0.0	0	2.0	Mental Health	East End Middle School (bus), Richmond, VA, United States	37.5421433	-77.41993099999999
276	1985-09-09	TX	Wheatley High School	K-12	0	0.0	0	2.0	Escalation of Dispute	Wheatley High School, Houston, TX, United States	29.7717292	-95.31988989999999
277	1985-09-20	TX	Langham Creek High School	K-12	0	0.0	0	2.0	Anger Over Grade/Suspension/Discipline	Langham Creek High School, Cypress, TX, United States	29.881309	-95.677185
278	1985-09-25	OH	Trotwood-Madison Senior High	K-12	0	0.0	0	2.0	Accidental	Trotwood-Madison Senior High, Trotwood, OH, United States	39.8096368	-84.31018979999999
279	1985-10-08	MD	Lake Clifton High School	K-12	1	0.0	1	2.0	Escalation of Dispute	Lake Clifton High School, Baltimore, MD, United States	39.3163674	-76.5896443
280	1985-10-18	MI	Murray-Wright High School	K-12	0	0.0	0	2.0	Escalation of Dispute	Murray-Wright High School, Detroit, MI, United States	42.3494717	-83.0836558
281	1985-10-22	OH	Southern Hills Joint Vocational High School	K-12	0		0	2.0	Accidental	Southern Hills Joint Vocational High School, Georgetown, OH, United States	38.88955929999999	-83.8911959
282	1985-11-26	WA	Spanaway Junior High School	K-12	1	1.0	3	2.0	Murder/Suicide	Spanaway Junior High School, Spanaway, WA, United States	47.1150727	-122.4277165
283	1985-11-27	AL	Chelsea School	K-12	1	1.0	1	2.0	Accidental	Chelsea School, Birmingham, AL, United States	33.3340545	-86.6803613
284	1985-12-03	NH	Concord High School	K-12	1	0.0	1	3.0	Hostage Standoff	Concord High School, Concord, NH, United States	43.2004366	-71.551175
285	1985-12-09	PA	Archbishop Ryan High School for boys	K-12	0	0.0	0	2.0	Mental Health	Archbishop Ryan High School for boys, Philadelphia, PA, United States	40.0851766	-74.9865832
286	1985-12-10	CT	Portland Junior High School	K-12	1	0.0	1	3.0	Anger Over Grade/Suspension/Discipline	Portland Junior High School, Portland, CT, United States	41.5803957	-72.62245759999999
287	1986-01-09	NC	Northern High School	K-12	1	0.0	1	2.0	Domestic w/ Targeted Victim	Northern High School, Durham, NC, United States	36.093821	-78.9118029
288	1986-01-17	CA	Vanguard Junior High School	K-12	1	0.0	1	2.0	Escalation of Dispute	Vanguard Junior High School, Los Angeles, CA, United States	33.9111229	-118.2708316
289	1986-01-29	MD	Lake Clifton High School	K-12	1	0.0	1	2.0	Bullying	Lake Clifton High School, Baltimore, MD, United States	39.3163674	-76.5896443
290	1986-02-24	LA	Boyet Junior High School	K-12	1	1.0	1	2.0	Suicide/Attempted	Boyet Junior High School, Slidell, LA, United States	30.29182	-89.73791
291	1986-03-06	IL	Thornridge High School	K-12	0	0.0	0	2.0	Anger Over Grade/Suspension/Discipline	Thornridge High School, Dolton, IL, United States	41.6209271	-87.5986872
292	1986-04-23	FL	Charles Drew Middle School	K-12	0	0.0	0	2.0	Escalation of Dispute	Charles Drew Middle School, Miami, FL, United States	25.8303507	-80.2275057
293	1986-04-29	MO	Senath-Hornersville High School	K-12	1	0.0	1	2.0	Bullying	Senath-Hornersville High School, Senath, MO, United States	36.1269661	-90.16150239999999
294	1986-05-09	NC	Pine Forest High School	K-12	0	0.0	0	2.0	Escalation of Dispute	Pine Forest High School, Fayetteville, NC, United States	35.1547493	-78.88646
295	1986-05-15	GA	Carver High School	K-12	0	0.0	0	2.0	Accidental	Carver High School, Atlanta, GA, United States	33.7205643	-84.3870819
296	1986-05-16	WY	Cokeville Elementary School	K-12	1	1.0	2	2.0	Hostage Standoff	Cokeville Elementary School, Cokeville, WY, United States	42.08687219999999	-110.9545322
297	1986-05-17	TN	Maplewood High School	K-12	0	0.0	0	2.0	Anger Over Grade/Suspension/Discipline	Maplewood High School, Nashville, TN, United States	36.23207	-86.750906
298	1986-09-12	CA	Fairfax High School	K-12	1	0.0	1	2.0	Gang-related	Fairfax High School, Los Angeles, CA, United States	34.0821574	-118.3597627
299	1986-09-18	CA	Benicia High School 	K-12	1	0.0	1	2.0	Domestic w/ Targeted Victim	Benicia High School , Benicia, CA, United States	38.0648321	-122.1756587
300	1986-10-03	CA	Monrovia High School	K-12	0	0.0	0	2.0	Gang-related	Monrovia High School, Monrovia, CA, United States	34.1483484	-118.0171262
301	1986-10-08	TX	South Oak Cliff High School	K-12	1	0.0	1	2.0	Escalation of Dispute	South Oak Cliff High School, Dallas, TX, United States	32.6996702	-96.8157572
302	1986-12-04	MT	Fergus High School	K-12	1	0.0	1	2.0	Anger Over Grade/Suspension/Discipline	Fergus High School, Lewistown, MT, United States	47.053473	-109.423892
303	1987-01-14	CA	Los Angeles High School	K-12	0	1.0	0	2.0	Suicide/Attempted	Los Angeles High School, Los Angeles, CA, United States	34.0554228	-118.3329959
304	1987-01-23	MI	Redford High School	K-12	0	0.0	0	2.0	Escalation of Dispute	Redford High School, Detroit, MI, United States	42.4186369	-83.21801789999999
305	1987-02-10	AR	Dardanelle High School	K-12	1	1.0	1	2.0	Suicide/Attempted	Dardanelle High School, Dardanelle, AR, United States	35.2074294	-93.1571745
306	1987-02-13	AZ	Orme School	K-12	1	0.0	1	2.0	Anger Over Grade/Suspension/Discipline	Orme School, Mayer, AZ, United States	34.43199	-112.070567
307	1987-02-24	NY	Mount Tom Country Day School	K-12	0	0.0	0	2.0	Unknown	Mount Tom Country Day School, New Rochelle, NY, United States	40.8941889	-73.7895765
308	1987-03-02	MO	Dekalb High School	K-12	1	1.0	2	2.0	Bullying	Dekalb High School, De Kalb, MO, United States	39.58625869999999	-94.92852769999999
309	1987-03-06	TX	Riverside High School	K-12	0	0.0	0	2.0	Escalation of Dispute	Riverside High School, El Paso, TX, United States	31.7337929	-106.3723188
310	1987-03-30	CA	Panorama Elementary School	K-12	1	1.0	1	2.0	Suicide/Attempted	Panorama Elementary School, Santa Ana, CA, United States	33.780369	-117.7917576
311	1987-04-16	MI	Murray-Wright High School	K-12	1	0.0	1	2.0	Escalation of Dispute	Murray-Wright High School, Detroit, MI, United States	42.3494717	-83.0836558
312	1987-04-30	OR	Grant High School	K-12	1	0.0	1	3.0	Escalation of Dispute	Grant High School, Portland, OR, United States	45.53905109999999	-122.6268374
313	1987-05-03	IN	Pike Township High School	K-12	0	0.0	0	3.0	Robbery	Pike Township High School, Indianapolis, IN, United States	39.8765222	-86.2548305
314	1987-05-06	FL	Leto High School	K-12	1	1.0	1	2.0	Suicide/Attempted	Leto High School, Tampa, FL, United States	28.0118271	-82.5185865
315	1987-05-06	AR	MacAuthur Junior High	K-12	0	1.0	0	2.0	Suicide/Attempted	MacAuthur Junior High, Jonesboro, AR, United States	35.8243194	-90.6900563
316	1987-05-13	IL	Oak Lawn Community High School	K-12	0	1.0	0	2.0	Suicide/Attempted	Oak Lawn Community High School, Oak Lawn, IL, United States	41.72162	-87.767984
317	1987-09-28	IL	Illiana Christian High School	K-12	0	0.0	0	2.0	Anger Over Grade/Suspension/Discipline	Illiana Christian High School, Lansing, IL, United States	41.564892	-87.56170569999999
318	1987-10-14	IL	DuSable High School	K-12	1	0.0	1	3.0	Escalation of Dispute	DuSable High School, Chicago, IL, United States	41.8045878	-87.6247619
319	1987-10-30	NC	Southwood Elementary School	K-12	0	0.0	0	2.0	Escalation of Dispute	Southwood Elementary School, Kingston, NC, United States	35.208074	-77.564869
320	1987-11-04	MI	Southwestern High School	K-12	0	0.0	0	2.0	Robbery	Southwestern High School, Detroit, MI, United States	42.3190803	-83.0917478
321	1987-11-14	FL	Clearwater High School	K-12	1	1.0	1	2.0	Suicide/Attempted	Clearwater High School, Clearwater, FL, United States	27.9585454	-82.7563107
322	1987-11-30	TX	Perales Elementary School	K-12	1	1.0	2	2.0	Murder/Suicide	Perales Elementary School, San Antonio, TX, United States	29.4091358	-98.54827490000001
323	1987-12-02	FL	Englewood High School	K-12	0	0.0	0	2.0	Intentional Property Damage	Englewood High School, Jacksonville, FL, United States	30.27762299999999	-81.61151360000001
324	1987-12-04	NY	East New York High School of Transit Technology	K-12	0	0.0	0	3.0	Domestic w/ Targeted Victim	East New York High School of Transit Technology, New York, NY, United States	40.678748	-73.87521319999999
325	1987-12-15	NY	Grady Vocational-Technical School	K-12	0	0.0	0	2.0	Accidental	Grady Vocational-Technical School, Brighton Beach, NY, United States	40.5827332	-73.9636603
326	1987-12-16	TX	Mayde Creek High School	K-12	1	1.0	1	2.0	Suicide/Attempted	Mayde Creek High School, Katy, TX, United States	29.806465	-95.695424
327	1988-01-05	PA	Springfield High School	K-12	0	0.0	0	2.0	Escalation of Dispute	Springfield High School, Springfield, PA, United States	39.9282102	-75.3385522
328	1988-01-06	FL	Gaither High School	K-12	0	1.0	0	3.0	Suicide/Attempted	Gaither High School, Tampa, FL, United States	28.100798	-82.5035101
329	1988-01-08	PA	Crawford County Joint Vocational Technical School	K-12	0	0.0	0	2.0	Unknown	Crawford County Joint Vocational Technical School, Meadville, PA, United States	41.6337012	-80.12619649999999
330	1988-01-20	LA	Simsboro High School	K-12	1	0.0	1	2.0	Accidental	Simsboro High School, Ruston, LA, United States	32.5341636	-92.7865659
331	1988-01-29	TX	Reagan High School	K-12	1	0.0	1	2.0	Domestic w/ Targeted Victim	Reagan High School, Austin, TX, United States	30.3224789	-97.6898391
332	1988-02-02	AL	West End Christian Elementary School	K-12	0	0.0	0	2.0	Mental Health	West End Christian Elementary School, Tuscaloosa, AL, United States	33.1994604	-87.5079894
333	1988-02-11	FL	Pinellas Park High School	K-12	1	0.0	1	2.0	Unknown	Pinellas Park High School, Largo, FL, United States	27.8807696	-82.7238871
334	1988-02-26	RI	Bristol High School	K-12	0	0.0	0	3.0	Escalation of Dispute	Bristol High School, Bristol, RI, United States	41.68770840000001	-71.2692521
335	1988-03-04	MI	Lessenger Junior High	K-12	0	0.0	0	2.0	Accidental	Lessenger Junior High, Detroit, MI, United States	42.35426959999999	-83.2478407
336	1988-03-23	CA	Cajon High School	K-12	0	0.0	0	2.0	Intentional Property Damage	Cajon High School, San Bernadino, CA, United States	34.1769133	-117.3094582
337	1988-03-24	TX	Travis High School	K-12	0	0.0	0	2.0	Unknown	Travis High School, Austin, TX, United States	30.2329676	-97.74418539999999
338	1988-05-05	IL	Martin Luther King High School	K-12	0	0.0	0	2.0	Accidental	Martin Luther King High School, Chicago, IL, United States	41.81411749999999	-87.60377869999999
339	1988-05-16	FL	Fort Myers Middle School	K-12	0	0.0	0	3.0	Escalation of Dispute	Fort Myers Middle School, Fort Myers, FL, United States	26.6197477	-81.86507189999999
340	1988-05-20	IL	Hubbard Woods Elementary School	K-12	1	0.0	2	3.0	Mental Health	Hubbard Woods Elementary School, Winnetka, IL, United States	42.1143602	-87.7457302
341	1988-05-31	NY	Public School 67	K-12	0	0.0	0	2.0	Escalation of Dispute	Public School 67, Bronx, NY, United States	40.8439944	-73.88452099999999
342	1988-06-02	MS	Wingfield High School	K-12	0	0.0	0	3.0	Gang-related	Wingfield High School, Jackson, MS, United States	32.2803997	-90.2417644
343	1988-06-17	MI	Joy Middle School	K-12	0	0.0	0	3.0	Escalation of Dispute	Joy Middle School, Detroit, MI, United States	42.401428	-83.136196
344	1988-06-30	HI	Aiea High School	K-12	0	0.0	0	3.0	Escalation of Dispute	Aiea High School, Oahu, HI, United States	21.3849016	-157.9300814
345	1988-07-10	WI	Siefert Elementary School	K-12	0	0.0	0	2.0	Escalation of Dispute	Siefert Elementary School, Milwaukee, WI, United States	43.05099020000001	-87.9303396
346	1988-07-11	MS	Lanier High School	K-12	0	0.0	0	3.0	Gang-related	Lanier High School, Jackson, MS, United States	32.3175301	-90.2025396
347	1988-08-31	MI	Central High School	K-12	0	0.0	0	2.0	Gang-related	Central High School, Detroit, MI, United States	42.38358909999999	-83.11178269999999
348	1988-08-31	SC	West Franklin Elementary School	K-12	1	0.0	1	2.0	Robbery	West Franklin Elementary School, Anderson, SC, United States	34.496686	-82.6645757
349	1988-09-03	TX	Lincoln High School	K-12	0	0.0	0	2.0	Robbery	Lincoln High School, Dallas, TX, United States	32.756467	-96.751881
350	1988-09-02	NC	Garinger High School	K-12	0	0.0	0	2.0	Escalation of Dispute	Garinger High School, Charlotte, NC, United States	35.2409912	-80.7819896
351	1988-09-02	GA	Glen Hills High School	K-12	0	0.0	0	2.0	Escalation of Dispute	Glen Hills High School, Augusta, GA, United States	33.4321554	-82.0740562
352	1988-09-22	IL	Moses Montefoire Public School	K-12	1	0.0	5	3.0	Mental Health	Moses Montefoire Public School, Chicago, IL, United States	41.8648712	-87.66659659999999
353	1988-09-26	SC	Oakland Elementary School	K-12	1	0.0	2	3.0	Mental Health	Oakland Elementary School, Greenwood, SC, United States	32.7872032	-80.03834859999999
354	1988-10-03	FL	Mascotte Elementary School 	K-12	0	0.0	0	2.0	Indiscriminate Shooting	Mascotte Elementary School , Mascotte, FL, United States	28.5723712	-81.88571220000001
355	1988-10-04	LA	Istrouma Senior High School	K-12	0	0.0	0	1.0	Escalation of Dispute	Istrouma Senior High School, Baton Rouge, LA, United States	30.4763011	-91.1517733
356	1988-10-04	FL	J. E. B. Stuart Junior High School (bus)	K-12	0	0.0	0	2.0	Unknown	J. E. B. Stuart Junior High School (bus), Jacksonville, FL, United States	30.2549618	-81.7375978
357	1988-10-05	MD	Edmondson Westside Senior High School	K-12	0	0.0	0	2.0	Escalation of Dispute	Edmondson Westside Senior High School, Baltimore, MD, United States	39.2917249	-76.687831
358	1988-10-06	AL	Most Pure Heart of Mary School	K-12	0	0.0	0	2.0	Domestic w/ Targeted Victim	Most Pure Heart of Mary School, Mobile, AL, United States	30.6966263	-88.0532326
359	1988-10-07	MD	Southwestern Senior High School	K-12	0	0.0	0	3.0	Gang-related	Southwestern Senior High School, Baltimore, MD, United States	39.281707	-76.63856190000001
360	1988-10-07	TX	Dick Dowling Elementary School	K-12	0	0.0	0	3.0	Unknown	Dick Dowling Elementary School, Port Arthur, TX, United States	29.9026191	-94.0381736
361	1988-11-01	FL	Paxon High School	K-12	0	0.0	0	2.0	Escalation of Dispute	Paxon High School, Jacksonville, FL, United States	30.344278	-81.722931
362	1988-11-07	UT	Glendale Intermediate School	K-12	0	0.0	0	2.0	Accidental	Glendale Intermediate School, Salt Lake City, UT, United States	40.7376923	-111.9303998
363	1988-11-22	TX	Abilene Cooper High School	K-12	0	0.0	0	2.0	Mental Health	Abilene Cooper High School, Abilene, TX, United States	32.4063785	-99.7488642
364	1988-12-16	VA	Atlantic Shores Christian School	K-12	1	0.0	1	3.0	Bullying	Atlantic Shores Christian School, Virginia Beach, VA, United States	36.7604006	-76.1843513
365	1989-01-17	CA	Cleveland Elementary School	K-12	1	1.0	6	2.0	Indiscriminate Shooting	Cleveland Elementary School, Stockton, CA, United States	37.982571	-121.3013269
366	1989-01-26	DC	Woodrow Wilson HIgh School	K-12	0	0.0	0	3.0	Escalation of Dispute	Woodrow Wilson HIgh School, Washington, DC, United States	38.9499299	-77.07749199999999
367	1989-02-10	UT	Thomas Jefferson Junior High School	K-12	0	0.0	0	2.0	Unknown	Thomas Jefferson Junior High School, Kearns, UT, United States	40.6448055	-112.0257774
368	1989-03-03	IN	Wirt High School	K-12	1	0.0	1	4.0	Escalation of Dispute	Wirt High School, Gary, IN, United States	41.609951	-87.263661
369	1989-04-26	TX	A. Maceo Smith High School	K-12	0	0.0	0	1.0	Escalation of Dispute	A. Maceo Smith High School, Dallas, TX, United States	32.6925137	-96.7653582
370	1989-09-11	AZ	Dysart High School	K-12	1	0.0	1	2.0	Accidental	Dysart High School, El Mirage, AZ, United States	33.590707	-112.340483
371	1989-09-18	KY	Jackson County High School	K-12	0	0.0	0	2.0	Hostage Standoff	Jackson County High School, McKee, KY, United States	37.4368391	-83.98618689999999
372	1989-10-05	CA	Loara High School	K-12	0	0.0	0	2.0	Hostage Standoff	Loara High School, Anaheim, CA, United States	33.8111268	-117.9439948
373	1989-10-31	TX	Oliver Wendell Holmes Middle School	K-12	0	0.0	0	2.0	Accidental	Oliver Wendell Holmes Middle School, Dallas, TX, United States	32.7155983	-96.7913578
374	1989-11-13	NY	Alfred E. Smith High School	K-12	1	0.0	1	2.0	Accidental	Alfred E. Smith High School, New York, NY, United States	40.8185183	-73.91996809999999
375	1989-11-15	TX	Workman Junior High School	K-12	0	0.0	0	2.0	Indiscriminate Shooting	Workman Junior High School, Arlington, TX, United States	32.6854325	-97.10164119999999
376	1989-11-22	CA	Channel Islands High School	K-12	1	0.0	1	2.0	Gang-related	Channel Islands High School, Oxnard, CA, United States	34.1711111	-119.162638
377	1989-12-04	LA	Caddo Magnet High School	K-12	0	0.0	0	2.0	Escalation of Dispute	Caddo Magnet High School, Shreveport, LA, United States	32.4973044	-93.7198092
378	1989-12-05	TX	W. W. Samuell High School	K-12	0	0.0	0	2.0	Gang-related	W. W. Samuell High School, Dallas, TX, United States	32.7454139	-96.6675982
379	1989-12-05	PA	Serra Catholic High School bus	K-12	1	1.0	1	2.0	Murder/Suicide	Serra Catholic High School bus, McKeesport, PA, United States	40.3257295	-79.8244201
380	1989-12-12	SC	Chester High School	K-12	0	0.0	0	2.0	Escalation of Dispute	Chester High School, Chester, SC, United States	34.6881561	-81.20265940000002
381	1990-01-16	RI	Central High School	K-12	0	0.0	0	2.0	Bullying	Central High School, Providence, RI, United States	41.816638	-71.42099499999999
382	1990-02-20	OH	Taft High School	K-12	1	0.0	1	2.0	Escalation of Dispute	Taft High School, Cincinnati, OH, United States	39.1092579	-84.5230385
383	1990-03-27	NY	New Utrecht High School	K-12	0	0.0	0	2.0	Racial	New Utrecht High School, Brooklyn, NY, United States	40.6134264	-74.0029406
384	1990-04-03	TX	Skyline High School	K-12	0	0.0	0	2.0	Escalation of Dispute	Skyline High School, Dallas, TX, United States	32.7805044	-96.69004629999999
385	1990-05-04	CA	Mount Pleasant High School	K-12	1	0.0	1	2.0	Racial	Mount Pleasant High School, East San Jose, CA, United States	37.3463737	-121.8091777
386	1990-05-20	TN	Hickman County High School	K-12	1	0.0	1	2.0	Unknown	Hickman County High School, Centerville, TN, United States	35.8084473	-87.4293977
387	1990-05-31	TX	Sunrise Elementary School	K-12	0	0.0	0	2.0	Indiscriminate Shooting	Sunrise Elementary School, Fort Worth, TX, United States	32.7118741	-97.2372224
388	1990-08-24	NC	Myers Park High School	K-12	1	0.0	1	2.0	Unknown	Myers Park High School, Charlotte, NC, United States	35.1716427	-80.8332355
389	1990-08-27	TX	W. H. Adamson High School	K-12	0	0.0	0	1.0	Gang-related	W. H. Adamson High School, Dallas, TX, United States	32.7482407	-96.82035959999999
390	1990-08-27	NV	Eldorado High School	K-12	1	0.0	1	2.0	Gang-related	Eldorado High School, Las Vegas, NV, United States	36.1801412	-115.049472
391	1990-09-11	TX	Sam Houston High School	K-12	0	0.0	0	2.0	Gang-related	Sam Houston High School, San Antonio, TX, United States	29.4253751	-98.3992038
392	1990-10-02	TX	W. H. Adamson High School	K-12	0	0.0	0	1.0	Unknown	W. H. Adamson High School, Dallas, TX, United States	32.7482407	-96.82035959999999
393	1990-10-29	IN	Charlestown High School	K-12	0	0.0	0	2.0	Hostage Standoff	Charlestown High School, Charlestown, IN, United States	38.4553294	-85.6674178
394	1990-10-30	TX	Naaman Forest High School	K-12	0	0.0	0	2.0	Anger Over Grade/Suspension/Discipline	Naaman Forest High School, Garland, TX, United States	32.9562402	-96.6384616
395	1990-12-13	LA	Salmen High School	K-12	0	0.0	0	1.0	Illegal Drug Related	Salmen High School, Slidell, LA, United States	30.24785	-89.79030999999999
396	1991-01-08	TX	Richardson High School	K-12	1	1.0	1	3.0	Suicide/Attempted	Richardson High School, Richardson, TX, United States	32.9531393	-96.7622435
397	1991-01-17	TX	Hood Middle School	K-12	0	0.0	0	1.0	Gang-related	Hood Middle School, Dallas, TX, United States	32.7584158	-96.689455
398	1991-02-19	LA	Booker T. Washington High School	K-12	1	0.0	1	2.0	Illegal Drug Related	Booker T. Washington High School, New Orleans, LA, United States	29.9501281	-90.0890234
399	1991-03-13	AL	Selma High School	K-12	0	0.0	0	3.0	Escalation of Dispute	Selma High School, Selma, AL, United States	32.4284032	-87.0226785
400	1991-03-14	SC	Woodmont High School	K-12	0	0.0	0	3.0	Escalation of Dispute	Woodmont High School, Piedmont, SC, United States	34.68855569999999	-82.3585816
401	1991-03-25	NC	Garinger High School	K-12	1	0.0	1	2.0	Escalation of Dispute	Garinger High School, Charlotte, NC, United States	35.2409912	-80.7819896
402	1991-04-11	SC	Northwest High School	K-12	1	1.0	1	1.0	Suicide/Attempted	Northwest High School, Rock Hill, SC, United States	34.9502215	-81.08301449999999
403	1991-04-23	CA	Ralph J. Bunche Middle School	K-12	1	0.0	1	2.0	Gang-related	Ralph J. Bunche Middle School, Compton, CA, United States	33.92156170000001	-118.2270514
404	1991-04-23	MS	Humphrey's County High School	K-12	0		0	2.0	Accidental	Humphrey's County High School, Belzoni, MS, United States	33.1858662	-90.48474560000001
405	1991-05-10	OH	Franklin Alternative Middle School	K-12	1	0.0	1	2.0	Escalation of Dispute	Franklin Alternative Middle School, Columbus, OH, United States	39.9615551	-82.9635109
406	1991-05-16	KS	Coronado Middle School	K-12	0	0.0	0	2.0	Gang-related	Coronado Middle School, Kansas City, KS, United States	39.12513149999999	-94.7267559
407	1991-05-21	CA	Robert A. Millikan Junior High School	K-12	1	0.0	1	2.0	Gang-related	Robert A. Millikan Junior High School, Sherman Oaks, CA, United States	34.1626842	-118.4272896
408	1991-07-22	CA	Westchester High School	K-12	0	0.0	0	2.0	Gang-related	Westchester High School, Los Angeles, CA, United States	33.9582876	-118.4287235
409	1991-07-30	CA	Enterprise Middle School	K-12	0	0.0	0	2.0	Gang-related	Enterprise Middle School, Compton, CA, United States	33.89388539999999	-118.2581507
410	1991-09-13	TX	Madison High School	K-12	1	0.0	1	2.0	Escalation of Dispute	Madison High School, Houston, TX, United States	29.6299226	-95.436623
411	1991-09-17	IL	Woodson High School	K-12	0	0.0	0	2.0	Gang-related	Woodson High School, Chicago, IL, United States	41.8140942	-87.6084813
412	1991-09-18	TX	Crosby High School	K-12	1	0.0	1	3.0	Escalation of Dispute	Crosby High School, Crosby, TX, United States	29.8954703	-95.0686956
413	1991-10-02	TX	Spring Woods High School (bus)	K-12	0	0.0	0	1.0	Accidental	Spring Woods High School (bus), Houston, TX, United States	29.8110129	-95.54760209999999
414	1991-10-04	CA	Dorsey High School	K-12	0	0.0	0	2.0	Gang-related	Dorsey High School, Los Angeles, CA, United States	34.0228182	-118.3463426
415	1991-10-04	CA	Roosevelt High School	K-12	0	0.0	0	2.0	Gang-related	Roosevelt High School, Los Angeles, CA, United States	34.0379653	-118.2103429
416	1991-10-09	NY	James Monroe High School	K-12	1	0.0	1	2.0	Escalation of Dispute	James Monroe High School, Bronx, NY, United States	40.83204509999999	-73.8783844
417	1991-10-11	MA	Madison Park High School	K-12	0	0.0	0	2.0	Escalation of Dispute	Madison Park High School, Roxbury, MA, United States	42.3319323	-71.0908397
418	1991-10-15	TX	Genevieve Sparks Elementary School	K-12	0	0.0	0	2.0	Accidental	Genevieve Sparks Elementary School, Pasadena, TX, United States	29.692567	-95.178162
419	1991-10-15	SC	Woodruff High School	K-12	0	0.0	0	2.0	Bullying	Woodruff High School, Woodruff, SC, United States	34.7318476	-82.0219285
420	1991-10-15	NH	Monadnock Regional High School	K-12	0	0.0	0	2.0	Anger Over Grade/Suspension/Discipline	Monadnock Regional High School, Swanzey, NH, United States	42.8743921	-72.2796438
421	1991-10-23	TX	Oak Cliff High School	K-12	1	0.0	1	2.0	Bullying	Oak Cliff High School, Dallas, TX, United States	32.6996702	-96.8157572
422	1991-11-06	LA	Walter L. Cohen Senior High School	K-12	1	0.0	1	1.0	Escalation of Dispute	Walter L. Cohen Senior High School, New Orleans, LA, United States	29.9301103	-90.09468319999999
423	1991-11-11	TX	Ysleta High School	K-12	1	0.0	1	2.0	Gang-related	Ysleta High School, El Paso, TX, United States	31.7004442	-106.3408857
424	1991-11-14	TX	Milby High School	K-12	0	0.0	0	2.0	Mental Health	Milby High School, Houston, TX, United States	29.7107556	-95.27799279999999
425	1991-11-25	NY	Thomas Jefferson High School	K-12	1	0.0	1	2.0	Escalation of Dispute	Thomas Jefferson High School, Brooklyn, NY, United States	40.6668454	-73.8952889
426	1991-12-26	NC	Whiteville High School	K-12	0	0.0	0	1.0	Unknown	Whiteville High School, Whiteville, NC, United States	34.335039	-78.707179
427	1992-01-28	LA	Francis W. Gregory Junior High School	K-12	0	0.0	0	2.0	Robbery	Francis W. Gregory Junior High School, Gentilly, LA, United States	30.0124722	-90.0602893
428	1992-01-31	LA	Francis W. Gregory Junior High School	K-12	0	0.0	0	2.0	Escalation of Dispute	Francis W. Gregory Junior High School, Gentilly, LA, United States	30.0124722	-90.0602893
429	1992-02-06	OK	Douglass High School	K-12	1	0.0	1	2.0	Escalation of Dispute	Douglass High School, Oklahoma City, OK, United States	35.4753502	-97.47509989999999
430	1992-02-07	VA	Booker T. Washington High School	K-12	1	0.0	1	2.0	Escalation of Dispute	Booker T. Washington High School, Norfolk, VA, United States	36.8532861	-76.266716
431	1992-02-26	NY	Thomas Jefferson High School	K-12	1	0.0	2	2.0	Escalation of Dispute	Thomas Jefferson High School, Brooklyn, NY, United States	40.6668454	-73.8952889
432	1992-03-05	OH	Hamilton Middle School	K-12	0	0.0	0	2.0	Escalation of Dispute	Hamilton Middle School, Obetz, OH, United States	39.8573576	-82.9873862
433	1992-03-31	LA	O. Perry Walker High School	K-12	1	0.0	1	2.0	Escalation of Dispute	O. Perry Walker High School, Algiers, LA, United States	29.9424474	-90.0396645
434	1992-04-09	FL	Fort Myers High School	K-12	0	0.0	0	3.0	Escalation of Dispute	Fort Myers High School, Fort Myers, FL, United States	26.6282483	-81.8776644
435	1992-04-17	TX	Lincoln High School	K-12	1	0.0	1	1.0	Accidental	Lincoln High School, Dallas, TX, United States	32.756467	-96.751881
436	1992-05-01	CA	Lindhurst High School	K-12	1	0.0	4	4.0	Hostage Standoff	Lindhurst High School, Olivehurst, CA, United States	39.0835674	-121.537714
437	1992-05-14	TX	Huntsville Junior High School	K-12	0	0.0	0	2.0	Escalation of Dispute	Huntsville Junior High School, Huntsville, TX, United States	34.72377180000001	-86.5748825
438	1992-05-14	CA	Silverado Middle School	K-12	0	0.0	0	2.0	Bullying	Silverado Middle School, Napa, CA, United States	38.2952878	-122.2619264
439	1992-05-29	CA	Venice High School	K-12	0	0.0	0	2.0	Gang-related	Venice High School, Los Angeles, CA, United States	33.9980938	-118.4442427
440	1992-06-06	CA	Merced High School	K-12	0	0.0	0	1.0	Escalation of Dispute	Merced High School, Merced, CA, United States	37.3203616	-120.4728461
441	1992-09-11	TX	Palo Duro High School	K-12	0	0.0	0	3.0	Escalation of Dispute	Palo Duro High School, Amarillo, TX, United States	35.2276189	-101.8238735
442	1992-09-28	CA	Hiram Johnson High School	K-12	0	0.0	0	3.0	Racial	Hiram Johnson High School, Sacramento, CA, United States	38.5409007	-121.424904
443	1992-09-30	TX	Hollibrook Elementary School	K-12	1	0.0	1	1.0	Gang-related	Hollibrook Elementary School, Houston, TX, United States	29.8263689	-95.50771259999999
444	1992-10-13	AZ	Desert View High School	K-12	1	0.0	1	3.0	Gang-related	Desert View High School, Tucson, AZ, United States	32.135965	-110.9042465
445	1992-10-19	NY	Evander Childs High School	K-12	0	0.0	0	2.0	Gang-related	Evander Childs High School, Bronx, NY, United States	40.8755572	-73.861435
446	1992-11-04	MI	Finney High School	K-12	0	0.0	0	3.0	Gang-related	Finney High School, Detroit, MI, United States	42.390245	-82.95343249999999
447	1992-11-04	MI	Marcus Garvey Academy	K-12	0	0.0	0	3.0	Gang-related	Marcus Garvey Academy, Detroit, MI, United States	42.3593031	-83.0016543
448	1992-11-04	MI	Mumford High School	K-12	0	0.0	0	3.0	Gang-related	Mumford High School, Detroit, MI, United States	42.4213221	-83.1646032
449	1992-11-10	IL	Sherman Elementary School	K-12	1	1.0	1	2.0	Accidental	Sherman Elementary School, Chicago, IL, United States	41.7998264	-87.6504542
450	1992-11-13	TX	Langham Creek High School	K-12	1	1.0	2	1.0	Murder/Suicide	Langham Creek High School, Cypress, TX, United States	29.881309	-95.677185
451	1992-11-16	AL	Fairfield High School	K-12	1	0.0	1	2.0	Robbery	Fairfield High School, Birmingham, AL, United States	33.4912583	-86.9082481
452	1992-11-20	IL	Tilden High School	K-12	1	0.0	1	2.0	Escalation of Dispute	Tilden High School, Chicago, IL, United States	41.8075276	-87.64235269999999
453	1992-11-24	AL	Robert E. Lee High School	K-12	0	0.0	0	1.0	Escalation of Dispute	Robert E. Lee High School, Montgomery, AL, United States	32.3785306	-86.2720641
454	1992-11-30	IL	Orr High School	K-12	0	0.0	0	2.0	Escalation of Dispute	Orr High School, Chicago, IL, United States	41.893927	-87.726435
455	1992-12-03	IL	Woodson High School	K-12	1	0.0	1	2.0	Gang-related	Woodson High School, Chicago, IL, United States	41.8140942	-87.6084813
456	1992-12-14	NY	Walton High School	K-12	0	0.0	0	2.0	Anger Over Grade/Suspension/Discipline	Walton High School, Walton, NY, United States	42.1600699	-75.1269708
457	1993-01-05	NY	Brentwood High School	K-12	0	0.0	0	2.0	Escalation of Dispute	Brentwood High School, Brentwood, NY, United States	40.7736168	-73.2550238
458	1993-01-12	FL	Norland Senior High School	K-12	1	0.0	1	2.0	Escalation of Dispute	Norland Senior High School, Miami, FL, United States	25.9515015	-80.22051189999999
459	1993-01-18	KY	East Carter High School	K-12	1	0.0	2	4.0	Hostage Standoff	East Carter High School, Grayson, KY, United States	38.3246518	-82.9335175
460	1993-01-21	CA	Fairfax High School	K-12	1	0.0	1	2.0	Accidental	Fairfax High School, Los Angeles, CA, United States	34.0821574	-118.3597627
461	1993-02-01	WA	Redmond Junior High School	K-12	1	1.0	1	2.0	Suicide/Attempted	Redmond Junior High School, Redmond, WA, United States	47.6919034	-122.1198912
462	1993-02-01	NY	Amityville High School	K-12	1	0.0	1	2.0	Escalation of Dispute	Amityville High School, Amityville, NY, United States	40.6705962	-73.4119401
463	1993-02-04	GA	Clayton High School	K-12	1	0.0	1	2.0	Escalation of Dispute	Clayton High School, Atlanta, GA, United States	33.6090778	-84.4396972
464	1993-02-08	DC	Washington-Dix Street Academy (High School)	K-12	1	0.0	1	1.0	Robbery	Washington-Dix Street Academy (High School), Washington, DC, United States	38.90955599999999	-76.9941424
465	1993-02-08	MN	Middle River Middle School	K-12	1	1.0	1	2.0	Suicide/Attempted	Middle River Middle School, Middle River, MN, United States	48.7893835	-96.2866138
466	1993-02-22	CA	Reseda High School	K-12	1	0.0	1	2.0	Gang-related	Reseda High School, Los Angeles, CA, United States	34.1899991	-118.5302945
467	1993-02-26	MA	Gloucester High School	K-12	1	1.0	1	2.0	Suicide/Attempted	Gloucester High School, Gloucester, MA, United States	42.613532	-70.67519159999999
468	1993-03-18	GA	Harlem High School	K-12	1	0.0	1	2.0	Bullying	Harlem High School, Harlem, GA, United States	33.4568869	-82.3133079
469	1993-03-25	MO	Sumner High School	K-12	1	0.0	1	2.0	Domestic w/ Targeted Victim	Sumner High School, St. Louis, MO, United States	38.6596524	-90.23892320000002
470	1993-04-03	CA	Grant High School	K-12	1	0.0	1	2.0	Unknown	Grant High School, Sacramento, CA, United States	38.6361628	-121.4350538
471	1993-04-15	MA	Ford Middle School	K-12	1	0.0	1	4.0	Mental Health	Ford Middle School, Acushnet, MA, United States	41.7233555	-70.9049794
472	1993-04-16	CA	Grant High School	K-12	1	0.0	1	3.0	Accidental	Grant High School, Sacramento, CA, United States	38.6361628	-121.4350538
473	1993-04-16	WA	Mount Tahoma High School	K-12	1	1.0	1	2.0	Suicide/Attempted	Mount Tahoma High School, Tacoma, WA, United States	47.1893447	-122.5026292
474	1993-05-14	TX	Nimitz High School	K-12	1	0.0	1	2.0	Escalation of Dispute	Nimitz High School, Irving, TX, United States	32.7928321	-96.94680559999999
475	1993-05-24	PA	Upper Perkiomen High School	K-12	1	0.0	1	2.0	Bullying	Upper Perkiomen High School, Pennsburg, PA, United States	40.3815416	-75.4900227
476	1993-05-27	LA	Francis T. Nicholls High School	K-12	1	0.0	1	2.0	Escalation of Dispute	Francis T. Nicholls High School, New Orleans, LA, United States	29.9654663	-90.03695549999999
477	1993-07-07	CA	Dorsey High School	K-12	1	0.0	1	1.0	Gang-related	Dorsey High School, Los Angeles, CA, United States	34.0228182	-118.3463426
478	1993-08-03	NY	Theodore Roosevelt High School	K-12	0	0.0	0	2.0	Unknown	Theodore Roosevelt High School, New York, NY, United States	40.8595162	-73.8885805
479	1993-08-31	GA	Harper High School	K-12	1	0.0	1	2.0	Escalation of Dispute	Harper High School, Atlanta, GA, United States	33.7695575	-84.49880309999999
480	1993-09-01	KS	Junction City High School	K-12	0	0.0	0	2.0	Escalation of Dispute	Junction City High School, Junction City, KS, United States	39.0315874	-96.84962469999999
481	1993-09-02	TX	Roosevelt High School	K-12	1	0.0	1	1.0	Escalation of Dispute	Roosevelt High School, Dallas, TX, United States	32.741673	-96.7953495
482	1993-09-16	IL	Roosevelt High School	K-12	1	0.0	1	2.0	Gang-related	Roosevelt High School, Chicago, IL, United States	41.9657658	-87.71418290000001
483	1993-09-17	WY	Central Junior High School	K-12	1	1.0	1	2.0	Indiscriminate Shooting	Central Junior High School, Sheridan, WY, United States	44.803249	-106.964044
484	1993-09-17	IL	Downers South High School	K-12	1	0.0	1	1.0	Escalation of Dispute	Downers South High School, Downers Grove, IL, United States	41.7708561	-88.02025739999999
485	1993-09-25	DC	Weatherless Elementary School	K-12	1	0.0	2	2.0	Gang-related	Weatherless Elementary School, Washington, DC, United States	38.9071923	-77.0368707
486	1993-10-12	DE	Dover High School	K-12	1	1.0	1	2.0	Murder/Suicide	Dover High School, New Castle, DE, United States	39.6688493	-75.5842303
487	1993-10-18	DC	J. H. Johnson Junior High School	K-12	0	0.0	0	1.0	Unknown	J. H. Johnson Junior High School, Washington, DC, United States	38.8511843	-76.9836523
488	1993-11-01	IL	Sullivan High School	K-12	1	0.0	1	2.0	Intentional Property Damage	Sullivan High School, Chicago, IL, United States	42.0028084	-87.6689166
489	1993-11-04	CT	New Britain High School	K-12	1	0.0	1	2.0	Gang-related	New Britain High School, New Britain, CT, United States	41.6499035	-72.77803879999999
490	1993-11-04	FL	Terry Parker High School	K-12	1	0.0	1	2.0	Robbery	Terry Parker High School, Jacksonville, FL, United States	30.342184	-81.57536999999999
491	1993-11-04	MS	Bay Springs High School	K-12	1	0.0	1	2.0	Unknown	Bay Springs High School, Bay Springs, MS, United States	31.9776141	-89.27789849999999
492	1993-11-11	IL	Ridgely Elementary School	K-12	1	0.0	1	2.0	Gang-related	Ridgely Elementary School, Springfield, IL, United States	39.8287	-89.6437815
493	1993-12-01	WI	Wauwatosa West High School	K-12	1	0.0	1	2.0	Anger Over Grade/Suspension/Discipline	Wauwatosa West High School, Wauwatosa, WI, United States	43.0683607	-88.055452
494	1993-12-02	CT	New Britain High School	K-12	1	0.0	1	2.0	Gang-related	New Britain High School, New Britain, CT, United States	41.6499035	-72.77803879999999
495	1993-12-08	GA	Beach High School	K-12	1	0.0	1	2.0	Gang-related	Beach High School, Savannah, GA, United States	32.0547935	-81.11589099999999
496	1993-12-15	CA	Chatsworth High School	K-12	1	0.0	1	1.0	Robbery	Chatsworth High School, San Fernando Valley, CA, United States	34.2533875	-118.5863634
497	1993-12-17	MI	Chelsea High School	K-12	1	0.0	1	2.0	Anger Over Grade/Suspension/Discipline	Chelsea High School, Chelsea, MI, United States	42.311417	-84.0023648
498	1994-01-20	CA	Los Altos High School	K-12	1	0.0	1	2.0	Escalation of Dispute	Los Altos High School, Hacienda Heights, CA, United States	34.0077519	-117.977114
499	1994-01-21	TX	Kennard High School	K-12	1	1.0	1	2.0	Suicide/Attempted	Kennard High School, Kennard, TX, United States	31.3611221	-95.179993
500	1994-01-24	SC	Eau Claire High School	K-12	1	0.0	1	2.0	Bullying	Eau Claire High School, Columbia, SC, United States	34.0481368	-81.0426049
501	1994-01-26	DC	Paul Lawrence Dunbar High School	K-12	0	0.0	0	1.0	Intentional Property Damage	Paul Lawrence Dunbar High School, Washington, DC, United States	38.9077814	-77.0129006
502	1994-01-26	DC	Eliot Junior High School	K-12	0	0.0	0	1.0	Unknown	Eliot Junior High School, Washington, DC, United States	38.8923472	-76.97896759999999
503	1994-01-27	CA	Washington Elementary School	K-12	1	0.0	1	5.0	Gang-related	Washington Elementary School, San Jose, CA, United States	37.3211268	-121.8812984
504	1994-01-31	WA	Whitman Middle School	K-12	1	0.0	1	2.0	Murder	Whitman Middle School, Seattle, WA, United States	47.6965669	-122.3777192
505	1994-02-08	MI	Osborn High School	K-12	1	0.0	1	2.0	Unknown	Osborn High School, Detroit, MI, United States	42.434046	-83.0027346
506	1994-02-18	SC	Spartanburg High School	K-12	0	0.0	0	2.0	Escalation of Dispute	Spartanburg High School, Spartanburg, SC, United States	34.9555439	-81.89807119999999
507	1994-03-01	MO	Kemper Military School and College	K-12	1	0.0	2	2.0	Domestic w/ Targeted Victim	Kemper Military School and College, Boonville, MO, United States	38.9715405	-92.7463245
508	1994-03-03	AL	Ensley High School	K-12	0	0.0	0	2.0	Gang-related	Ensley High School, Birmingham, AL, United States	33.5063419	-86.893309
509	1994-03-09	DC	Eastern High School	K-12	1	0.0	1	1.0	Escalation of Dispute	Eastern High School, Washington, DC, United States	38.8903247	-76.9795263
510	1994-03-15	SC	Goose Creek High School	K-12	1	0.0	1	2.0	Escalation of Dispute	Goose Creek High School, Charleston, SC, United States	32.9737479	-80.01643179999999
511	1994-03-23	WA	Ballard High School	K-12	1	0.0	1	2.0	Gang-related	Ballard High School, Seattle, WA, United States	47.6766558	-122.3754002
512	1994-03-25	GA	Etowah High School	K-12	1	1.0	1	1.0	Suicide/Attempted	Etowah High School, Cherokee County, GA, United States	34.1161551	-84.56422889999999
513	1994-04-05	TX	McNeil High School	K-12	0	0.0	0	2.0	Accidental	McNeil High School, Austin, TX, United States	30.4492728	-97.73324819999999
514	1994-04-08	MD	Largo High School	K-12	0	0.0	0	1.0	Accidental	Largo High School, Upper Marlboro, MD, United States	38.8862713	-76.82034879999999
515	1994-04-12	MT	Margaret Leary Elementary School	K-12	1	0.0	1	3.0	Bullying	Margaret Leary Elementary School, Butte, MT, United States	45.9300592	-112.4610221
516	1994-04-13	CA	49th Street Elementary School	K-12	1	1.0	1	2.0	Suicide/Attempted	49th Street Elementary School, Los Angeles, CA, United States	33.9985521	-118.2617955
517	1994-04-19	DC	Eliot Junior High School	K-12	1	0.0	1	2.0	Unknown	Eliot Junior High School, Washington, DC, United States	38.8923472	-76.97896759999999
518	1994-04-21	TN	J.T. Moore Middle School	K-12	1	0.0	1	2.0	Accidental	J.T. Moore Middle School, Nashville, TN, United States	36.095479	-86.802494
519	1994-05-02	FL	North Miami High School	K-12	1	0.0	1	2.0	Accidental	North Miami High School, North Miami, FL, United States	25.8969252	-80.184148
520	1994-05-25	NJ	Lakeland Regional High School	K-12	1	1.0	1	2.0	Suicide/Attempted	Lakeland Regional High School, Wanaque, NJ, United States	41.0589929	-74.2817528
521	1994-05-26	KY	Larry A. Ryle High School	K-12	0	0.0	0	1.0	Hostage Standoff	Larry A. Ryle High School, Union, KY, United States	38.933132	-84.6773577
522	1994-07-24	PA	Manchester Elementary School	K-12	1	0.0	1	1.0	Escalation of Dispute	Manchester Elementary School, Manchester, PA, United States	40.4566107	-80.02691949999999
523	1994-07-25	IA	Ottumwa High School	K-12	1	0.0	1	2.0	Escalation of Dispute	Ottumwa High School, Ottumwa, IA, United States	41.0151627	-92.4062057
524	1994-09-07	CA	Hollywood High School	K-12	1	0.0	1	1.0	Gang-related	Hollywood High School, Los Angeles, CA, United States	34.099165	-118.3400514
525	1994-09-08	NY	Sweet Home High School	K-12	0	0.0	0	3.0	Bullying	Sweet Home High School, Albany, NY, United States	43.0101786	-78.7970543
526	1994-09-19	CA	Locke High School	K-12	0	0.0	0	2.0	Gang-related	Locke High School, Los Angeles, CA, United States	33.9353785	-118.268409
527	1994-09-22	OR	Lebanon Union High School	K-12	0	0.0	0	2.0	Accidental	Lebanon Union High School, Lebanon, OR, United States	44.5295674	-122.9145339
528	1994-10-12	NC	Grimsley High School	K-12	1	1.0	1	3.0	Anger Over Grade/Suspension/Discipline	Grimsley High School, Greensboro, NC, United States	36.083774	-79.816143
529	1994-10-17	IL	Hubbard High School	K-12	0		0	2.0	Gang-related	Hubbard High School, Chicago, IL, United States	41.7801987	-87.71864699999999
530	1994-10-31	CA	Aliso Niguel High school	K-12	0	1.0	0	2.0	Suicide/Attempted	Aliso Niguel High school, Aliso Veijo, CA, United States	33.5617208	-117.7193706
531	1994-11-05	CA	Thomas Jefferson Elementary School	K-12	1	0.0	1	4.0	Murder	Thomas Jefferson Elementary School, San Leandro, CA, United States	37.712952	-122.135365
532	1994-11-07	OH	Wickliffe Middle School	K-12	1	0.0	1	2.0	Mental Health	Wickliffe Middle School, Wickliffe, OH, United States	41.6051779	-81.47400689999999
533	1994-11-08	IA	West Delaware High School	K-12	0	0.0	0	1.0	Intentional Property Damage	West Delaware High School, Manchester, IA, United States	42.48913890000001	-91.4537546
534	1984-11-09	CT	Wilbur Cross High School	K-12	0	0.0	0	2.0	Escalation of Dispute	Wilbur Cross High School, New Haven, CT, United States	41.3239572	-72.90760709999999
535	1994-11-15	WA	Stadium High School	K-12	1	1.0	1	1.0	Suicide/Attempted	Stadium High School, Tacoma, WA, United States	47.2660086	-122.4484925
536	1995-01-06	DC	Cardozo Senior High School	K-12	1	0.0	1	2.0	Gang-related	Cardozo Senior High School, Washington, DC, United States	38.9214669	-77.0283798
537	1995-01-10	FL	Palm Beach Gardens High School	K-12	1	1.0	1	2.0	Suicide/Attempted	Palm Beach Gardens High School, Palm Beach Gardens, FL, United States	26.825103	-80.101136
538	1995-01-12	WA	Garfield High School	K-12	0	0.0	0	2.0	Escalation of Dispute	Garfield High School, Seattle, WA, United States	47.6053376	-122.301866
539	1995-01-23	CA	Sacred Heart Middle School	K-12	1	1.0	2	2.0	Anger Over Grade/Suspension/Discipline	Sacred Heart Middle School, Redlands, CA, United States	34.0519	-117.18246
540	1995-02-02	CA	Jordan High School	K-12	1	0.0	1	2.0	Gang-related	Jordan High School, Long Beach, CA, United States	33.8722207	-118.1840179
541	1995-02-08	NE	Chadron Middle School	K-12	0	0.0	0	2.0	Unknown	Chadron Middle School, Scottsbluff, NE, United States	42.82462100000001	-102.9952598
542	1995-03-27	MI	Redford High School	K-12	0	0.0	0	2.0	Gang-related	Redford High School, Detroit, MI, United States	42.4186369	-83.21801789999999
543	1995-06-14	FL	Lake Worth High School	K-12	0	0.0	0	1.0	Domestic w/ Targeted Victim	Lake Worth High School, Lake Worth, FL, United States	26.6162504	-80.066614
544	1995-08-29	TX	Memorial Middle School	K-12	1	0.0	1	1.0	Domestic w/ Targeted Victim	Memorial Middle School, Laredo, TX, United States	27.5142102	-99.49414089999999
545	1995-09-12	TN	Cypress Junior High School	K-12	1	0.0	1	1.0	Escalation of Dispute	Cypress Junior High School, Memphis, TN, United States	35.1671141	-89.9879354
546	1995-09-14	KS	Olathe North High School	K-12	1	0.0	2	2.0	Escalation of Dispute	Olathe North High School, Olathe, KS, United States	38.8875164	-94.8082785
547	1995-09-27	AL	Blount High School	K-12	0	0.0	0	2.0	Escalation of Dispute	Blount High School, Prichard, AL, United States	30.7788699	-88.1789417
548	1995-09-29	FL	Tavares Middle School	K-12	1	0.0	1	2.0	Escalation of Dispute	Tavares Middle School, Tavares, FL, United States	28.77041419999999	-81.741118
549	1995-10-12	SC	Blackville-Hilda High School	K-12	1	1.0	3	2.0	Anger Over Grade/Suspension/Discipline	Blackville-Hilda High School, Blackville, SC, United States	33.3642976	-81.26365729999999
550	1995-10-23	FL	Lake Howell High School	K-12	0	0.0	0	2.0	Suicide/Attempted	Lake Howell High School, Casselberry, FL, United States	28.6374281	-81.2731342
551	1995-10-30	VA	John F. Kennedy High School	K-12	0	0.0	0	1.0	Escalation of Dispute	John F. Kennedy High School, Richmond, VA, United States	37.5524906	-77.40387779999999
552	1995-11-02	FL	Blue Lake Elementary School (bus)	K-12	1	0.0	1	2.0	Hostage Standoff	Blue Lake Elementary School (bus), Miami Beach, FL, United States	29.0309293	-81.2771264
553	1995-11-15	TN	Richland High School	K-12	1	0.0	2	2.0	Bullying	Richland High School, Lynnville, TN, United States	35.3373936	-87.0319124
554	1995-11-28	NY	Thomas A. Edison Vocational and Technical High School	K-12	1	0.0	1	2.0	Robbery	Thomas A. Edison Vocational and Technical High School, New York, NY, United States	40.7162714	-73.7983076
555	1996-01-02	PA	Girard High School	K-12	1	1.0	1	1.0	Suicide/Attempted	Girard High School, Girard, PA, United States	42.0081823	-80.3339823
556	1996-01-19	DC	Winston Education Center	K-12	1	0.0	1	2.0	Escalation of Dispute	Winston Education Center, Washington, DC, United States	38.8575428	-76.9629929
557	1996-01-26	TN	East High School	K-12	1	0.0	1	1.0	Escalation of Dispute	East High School, Memphis, TN, United States	35.1315944	-89.95435169999999
558	1996-02-02	WA	Frontier Middle School	K-12	1	0.0	3	3.0	Hostage Standoff	Frontier Middle School, Moses Lake, WA, United States	47.1266968	-119.2829335
559	1996-02-08	CA	Mid-Peninsula High School	K-12	1	1.0	1	2.0	Murder/Suicide	Mid-Peninsula High School, Menlo Park, CA, United States	37.4764263	-122.1519854
560	1996-02-22	GA	Jenkins High School	K-12	1	0.0	1	1.0	Escalation of Dispute	Jenkins High School, Savannah, GA, United States	32.0230981	-81.0832346
561	1996-02-29	MO	Beaumont High School (bus)	K-12	1	0.0	1	2.0	Murder	Beaumont High School (bus), St. Louis, MO, United States	38.6625317	-90.2219602
562	1996-03-11	NC	North Stanley High School	K-12	1	1.0	1	1.0	Suicide/Attempted	North Stanley High School, New Longdon, NC, United States	35.4269793	-80.21166439999999
563	1996-03-19	NV	Swainston Middle School	K-12	0	0.0	0	1.0	Unknown	Swainston Middle School, Las Vegas, NV, United States	36.2292513	-115.1867916
564	1996-04-11	AL	Talladega High School	K-12	1	0.0	1	1.0	Escalation of Dispute	Talladega High School, Talladega, AL, United States	33.4225456	-86.0775347
565	1996-04-15	DC	McKinley High School	K-12	1	0.0	1	1.0	Unknown	McKinley High School, Washington, DC, United States	38.9145641	-77.00488899999999
566	1996-05-14	UT	Bingham Middle School	K-12	1	1.0	1	1.0	Suicide/Attempted	Bingham Middle School, Taylorsville, UT, United States	40.5637801	-111.9464736
567	1996-05-22	CA	Colton High School	K-12	1	0.0	1	1.0	Gang-related	Colton High School, Colton, CA, United States	34.0700735	-117.3344699
568	1996-06-04	CA	West Valley High School	K-12	1	1.0	1	1.0	Suicide/Attempted	West Valley High School, Hemet, CA, United States	33.7200218	-117.0097452
569	1996-07-26	CA	John Marshall High School	K-12	0	0.0	0	1.0	Escalation of Dispute	John Marshall High School, Los Angeles, CA, United States	34.1079309	-118.2774744
570	1996-09-25	GA	Dekalb Alternative School	K-12	1	0.0	1	2.0	Anger Over Grade/Suspension/Discipline	Dekalb Alternative School, Decatur, GA, United States	33.7984364	-84.1980707
571	1996-10-02	PA	Smedley Elementary School	K-12	1	0.0	2	1.0	Domestic w/ Targeted Victim	Smedley Elementary School, Philadelphia, PA, United States	40.0196872	-75.0740096
572	1996-10-04	CA	St. Bernard High School	K-12	1	0.0	1	1.0	Unknown	St. Bernard High School, Playa Del Rey, CA, United States	33.95429	-118.4328237
573	1996-10-09	AR	Jacksonville High School bus	K-12	1	0.0	1	2.0	Escalation of Dispute	Jacksonville High School bus, Sherwood, AR, United States	34.8503163	-92.2357363
574	1996-10-14	MO	Sumner High School	K-12	1	0.0	1	1.0	Escalation of Dispute	Sumner High School, St. Louis, MO, United States	38.6596524	-90.23892320000002
575	1996-11-27	CA	Highlands High School	K-12	1		1	1.0	Officer Involved Shooting	Highlands High School, Sacramento, CA, United States	38.6872936	-121.3591664
576	1997-01-08	NY	Crown Heights High School	K-12	1	0.0	1	2.0	Escalation of Dispute	Crown Heights High School, New York, NY, United States	40.6699636	-73.9615536
577	1997-01-27	FL	Conniston Middle School	K-12	1	0.0	1	2.0	Escalation of Dispute	Conniston Middle School, West Palm Beach, FL, United States	26.678282	-80.0617539
578	1997-02-19	AK	Bethel Regional High School	K-12	1	0.0	2	2.0	Bullying	Bethel Regional High School, Bethel, AK, United States	60.8021495	-161.7704565
579	1997-02-20	FL	First Coast High School	K-12	1	1.0	1	1.0	Suicide/Attempted	First Coast High School, Jacksonville, FL, United States	30.4826354	-81.6083022
580	1997-03-17	MI	Pershing High School	K-12	1	0.0	1	2.0	Escalation of Dispute	Pershing High School, Detroit, MI, United States	42.4321756	-83.0642903
581	1997-04-03	CA	Maria Del Rey Junior High School	K-12	1	0.0	1	1.0	Gang-related	Maria Del Rey Junior High School, Mar Vista, CA, United States	34.001115	-118.445798
582	1997-04-28	CA	John Marshall High School	K-12	1	0.0	1	1.0	Gang-related	John Marshall High School, Los Angeles, CA, United States	34.1079309	-118.2774744
583	1997-04-30	NY	City-as-School High School	K-12	1	0.0	1	1.0	Unknown	City-as-School High School, New York, NY, United States	40.7291091	-74.0060997
584	1997-05-13	FL	Northwestern High School	K-12	0	0.0	0	2.0	Escalation of Dispute	Northwestern High School, Miami, FL, United States	25.839045	-80.2136695
585	1997-05-20	OH	Dunbar High School	K-12	0	0.0	0	2.0	Accidental	Dunbar High School, Dayton, OH, United States	39.7330909	-84.2311825
586	1997-10-01	MS	Pearl High School	K-12	1	0.0	3	2.0	Domestic w/ Targeted Victim	Pearl High School, Pearl, MS, United States	32.2704073	-90.0934734
587	1997-10-10	IN	Wallace High School	K-12	1	0.0	1	2.0	Gang-related	Wallace High School, Gary, IN, United States	41.5360783	-87.34228530000001
588	1997-10-14	TX	Lakeview Centennial High School	K-12	1	1.0	1	1.0	Suicide/Attempted	Lakeview Centennial High School, Garland, TX, United States	32.8575318	-96.5761307
589	1997-10-15	FL	Lincoln Middle School	K-12	0	0.0	0	2.0	Escalation of Dispute	Lincoln Middle School, Palmetto, FL, United States	27.5268124	-82.56187829999999
590	1997-10-20	CA	McClymonds High School	K-12	1	0.0	1	1.0	Unknown	McClymonds High School, Oakland, CA, United States	37.8180626	-122.2787164
591	1997-10-22	CA	John Glenn High School	K-12	1	1.0	2	2.0	Murder/Suicide	John Glenn High School, Norwalk, CA, United States	33.9078157	-118.0532265
592	1997-11-07	FL	Ribault High School	K-12	1	0.0	1	2.0	Escalation of Dispute	Ribault High School, Jacksonville, FL, United States	30.390581	-81.7077094
593	1997-11-13	CA	Creekside Elementary School	K-12	1	0.0	1	2.0	Domestic w/ Targeted Victim	Creekside Elementary School, Sacramento, CA, United States	38.613311	-121.394517
594	1997-12-01	KY	Heath High School	K-12	1	0.0	3	2.0	Indiscriminate Shooting	Heath High School, West Paducah, KY, United States	37.0789529	-88.7944009
595	1997-12-15	AR	Stamps High School	K-12	0	0.0	0	2.0	Indiscriminate Shooting	Stamps High School, Stamps, AR, United States	33.3698711	-93.4810849
596	1998-02-12	NJ	Hoboken High School	K-12	1	1.0	2	3.0	Domestic w/ Targeted Victim	Hoboken High School, Hoboken, NJ, United States	40.7475621	-74.03322639999999
597	1998-02-25	MI	Reed City High School	K-12	1	1.0	1	2.0	Suicide/Attempted	Reed City High School, Reed City, MI, United States	43.86657839999999	-85.512441
598	1998-02-27	VA	Marshall High School	K-12	1	0.0	1	2.0	Gang-related	Marshall High School, Fairfax, VA, United States	38.905904	-77.2123123
599	1998-03-24	AR	Westside Middle School	K-12	1	0.0	5	2.0	Indiscriminate Shooting	Westside Middle School, Jonesboro, AR, United States	35.8570841	-90.8058207
600	1998-03-25	MI	Coldwater High School	K-12	1	1.0	1	2.0	Suicide/Attempted	Coldwater High School, Coldwater, MI, United States	41.9500099	-85.0121812
601	1998-03-25	CA	Fernando Rivera Middle School	K-12	0	0.0	0	2.0	Anger Over Grade/Suspension/Discipline	Fernando Rivera Middle School, Daly City, CA, United States	37.6767607	-122.4861439
602	1998-03-30	NC	Grey Culbreth Middle School	K-12	1	1.0	1	2.0	Suicide/Attempted	Grey Culbreth Middle School, Chapel Hill, NC, United States	35.8898717	-79.0673549
603	1998-03-31	WI	Oakfield Middle School	K-12	0	0.0	0	2.0	Anger Over Grade/Suspension/Discipline	Oakfield Middle School, Oakfield, WI, United States	43.6852954	-88.54169619999999
604	1998-04-23	CA	Culver City High School	K-12	0	0.0	0	2.0	Gang-related	Culver City High School, Los Angeles, CA, United States	34.0068446	-118.4013141
605	1998-04-24	PA	Parker Middle School	K-12	1	0.0	1	2.0	Indiscriminate Shooting	Parker Middle School, Edinboro, PA, United States	41.9152581	-80.12111
606	1998-04-28	WI	Pardeeville Elementary School	K-12	0	0.0	0	2.0	Robbery	Pardeeville Elementary School, Pardeeville, WI, United States	43.5350605	-89.2948206
607	1998-04-28	CA	Philadelphia Elementary School	K-12	1	0.0	2	2.0	Gang-related	Philadelphia Elementary School, Pomona, CA, United States	34.0324514	-117.7436689
608	1998-05-01	FL	North Miami Senior High School	K-12	0	0.0	0	2.0	Gang-related	North Miami Senior High School, Miami, FL, United States	25.8969252	-80.184148
609	1998-05-01	NY	Public School 18	K-12	1	0.0	1	2.0	Domestic w/ Targeted Victim	Public School 18, Buffalo, NY, United States	42.9597801	-78.7830884
610	1998-05-19	TN	Lincoln County High School	K-12	1	0.0	1	2.0	Escalation of Dispute	Lincoln County High School, Fayetteville, TN, United States	35.1351532	-86.5683676
611	1998-05-21	OR	Thurston High School	K-12	1	0.0	4	3.0	Anger Over Grade/Suspension/Discipline	Thurston High School, Springfield, OR, United States	44.0487449	-122.9250739
612	1998-05-21	WA	Onalaska High School	K-12	1	1.0	1	2.0	Suicide/Attempted	Onalaska High School, Onalaska, WA, United States	46.5820759	-122.7188183
613	1998-05-21	CA	Rialta High School	K-12	1	1.0	1	2.0	Suicide/Attempted	Rialta High School, Rialto, CA, United States	34.0894025	-117.3548926
614	1998-05-27	CA	Washington Middle School	K-12	1	0.0	1	1.0	Gang-related	Washington Middle School, Pasadena, CA, United States	34.171769	-118.147734
615	1998-05-29	FL	Stranahan High School	K-12	1	1.0	2	2.0	Murder/Suicide	Stranahan High School, Ft. Lauderdale, FL, United States	26.1128269	-80.1644877
616	1998-06-15	VA	Armstrong High School	K-12	0	0.0	0	2.0	Escalation of Dispute	Armstrong High School, Richmond, VA, United States	37.5524906	-77.40387779999999
617	1998-09-11	CA	Herbert Hoover High School	K-12	0	0.0	0	2.0	Gang-related	Herbert Hoover High School, Glendale, CA, United States	34.1657364	-118.270532
618	1998-09-30	FL	North Miami High School	K-12	0	0.0	0	2.0	Gang-related	North Miami High School, Miami, FL, United States	25.8969252	-80.184148
619	1998-09-30	FL	Leesburg High School	K-12	0	0.0	0	2.0	Accidental	Leesburg High School, Leesburg, FL, United States	28.8083228	-81.8885751
620	1998-11-03	PA	Martin Luther King High School	K-12	1	0.0	1	3.0	Escalation of Dispute	Martin Luther King High School, Philadelphia, PA, United States	40.0564216	-75.1616521
621	1998-11-30	NY	Hancock Middle High School	K-12	0	1.0	0	3.0	Suicide/Attempted	Hancock Middle High School, Hancock, NY, United States	41.9569048	-75.2809908
622	1998-12-03	IN	Ernie Elementary School	K-12	0	0.0	0	3.0	Escalation of Dispute	Ernie Elementary School, Gary, IN, United States	41.5901632	-87.3623916
623	1998-12-11	IN	Ben Davis Junior High School	K-12	0	0.0	0	2.0	Accidental	Ben Davis Junior High School, Indianapolis, IN, United States	39.7800141	-86.29042510000001
624	1999-01-08	GA	Central High School	K-12	1	1.0	2	2.0	Murder/Suicide	Central High School, Carrollton, GA, United States	33.5521081	-85.0682758
625	1999-01-14	NY	Harry S. Truman High School	K-12	0	0.0	0	2.0	Escalation of Dispute	Harry S. Truman High School, New York, NY, United States	40.874285	-73.83332899999999
626	1999-01-21	TX	Richland High School	K-12	1	1.0	1	2.0	Suicide/Attempted	Richland High School, North Richland Hills, TX, United States	32.8423902	-97.2301196
627	1999-02-11	IL	Ombudsman Educational Service Center	K-12	1	0.0	1	2.0	Gang-related	Ombudsman Educational Service Center, Elgin, IL, United States	41.9534466	-88.0816759
628	1999-02-11	MS	Jefferson-Todd Educational Center	K-12	0	0.0	0	2.0	Racial	Jefferson-Todd Educational Center, Purvis, MS, United States	31.1371185	-89.411064
629	1999-03-04	IL	Niles West High School	K-12	1	1.0	1	2.0	Domestic w/ Targeted Victim	Niles West High School, Skokie, IL, United States	42.0258557	-87.7717629
630	1999-04-16	ID	Notus Jr. Sr. High School	K-12	0	0.0	0	2.0	Mental Health	Notus Jr. Sr. High School, Notus, ID, United States	43.735786	-116.7972875
631	1999-04-20	CO	Columbine High School	K-12	1	1.0	15	5.0	Indiscriminate Shooting	Columbine High School, Littleton, CO, United States	39.6038386	-105.0742384
632	1999-04-22	LA	Scotlandville Middle School	K-12	0	0.0	0	1.0	Escalation of Dispute	Scotlandville Middle School, Baton Rouge, LA, United States	30.5299396	-91.16996879999999
633	1999-04-22	GA	Martin Luther King Jr. Middle School	K-12	1	0.0	1	2.0	Escalation of Dispute	Martin Luther King Jr. Middle School, Atlanta, GA, United States	33.7385063	-84.37954669999999
634	1999-05-20	GA	Heritage High School	K-12	0	0.0	0	2.0	Indiscriminate Shooting	Heritage High School, Conyers, GA, United States	33.627276	-84.04670999999999
635	1999-08-25	GA	Jasper County High School	K-12	1	1.0	1	2.0	Suicide/Attempted	Jasper County High School, Monticello, GA, United States	33.3363897	-83.7144196
